geonames_id,city_name,toponym_name,lat,lon,population_rank,pop,country_name,country_code,un_country_code,region_code,region_name,continent_code,continent_name,citation
2624652,Aarhus,Århus,56.15674,10.21076,,237551,Denmark,DK,208,154,Northern Europe,EU,Europe,
2293538,Abidjan,Abidjan,5.30966,-4.01266,,3677115,Ivory Coast,CI,384,11,Western Africa,AF,Africa,
2395914,Abomey-Calavi,Abomey-Calavi,6.44852,2.35566,,385755,Benin,BJ,204,11,Western Africa,AF,Africa,
292968,Abu Dhabi,Abu Dhabi,24.46667,54.36667,,603492,United Arab Emirates,AE,784,145,Western Asia,AS,Asia,
2352778,Abuja,Abuja,9.05785,7.49508,,590400,Nigeria,NG,566,11,Western Africa,AF,Africa,
2306104,Accra,Accra,5.55602,-0.1969,,1963264,Ghana,GH,288,11,Western Africa,AF,Africa,
110336,Dammam,Dammam,26.43442,50.10326,674,768602,Saudi Arabia,SA,682,145,Western Asia,AS,Asia,
4030723,Adams Town,Adamstown,-25.06597,-130.10147,,46,Pitcairn Islands,PN,,,,,,
325363,Adana,Adana,37.00167,35.32889,350,1248988,Turkey,TR,792,145,Western Asia,AS,Asia,
344979,Addis Ababa,Addis Ababa,9.02497,38.74689,,2757729,Ethiopia,ET,231,14,Eastern Africa,AF,Africa,
2078025,Adelaide,Adelaide,-34.92866,138.59863,387,1225235,Australia,AU,36,53,Australia and New Zealand,OC,Oceania,
415189,Aden,Aden,12.77944,45.03667,,550602,Yemen,YE,887,145,Western Asia,AS,Asia,
1279259,Agra,Āgra,27.18333,78.01667,299,1430055,India,IN,356,34,Southern Asia,AS,Asia,
1279233,Ahmedabad,Ahmedabad,23.02579,72.58726,55,3719710,India,IN,356,34,Southern Asia,AS,Asia,
144448,Ahvaz,Ahvaz,31.31901,48.6842,483,841145,Iran,IR,364,34,Southern Asia,AS,Asia,
1559962,Airai Hamlet,Airai Hamlet,7.35985,134.55946,,0,Palau,PW,585,57,Micronesia,OC,Oceania,
615914,Akhalgori,Akhalgori,42.12597,44.48333,,1420,Georgia,GE,268,145,Western Asia,AS,Asia,
2633274,Akureyri,Akureyri,65.68353,-18.0878,,17693,Iceland,IS,352,154,Northern Europe,EU,Europe,
285799,Al Jahra,Al Jahrā’,29.3375,47.65806,,24281,Kuwait,KW,414,145,Western Asia,AS,Asia,
289962,Al Khawr,Al Khawr,25.68389,51.50583,,18923,Qatar,QA,634,145,Western Asia,AS,Asia,
173811,Al Ḩasakah,Al Ḩasakah,36.50237,40.74772,304,81539,Syria,SY,760,145,Western Asia,AS,Asia,
109223,Medina,Medina,24.46861,39.61417,501,1300000,Saudi Arabia,SA,682,145,Western Asia,AS,Asia,
172955,Ar Raqqah,Ar Raqqah,35.95283,39.00788,714,177636,Syria,SY,760,145,Western Asia,AS,Asia,
4034886,Alele,Alele,-13.24667,-176.18341,,629,Wallis and Futuna,WF,876,61,Polynesia,OC,Oceania,
170063,Aleppo,Aleppo,36.20124,37.16117,,1602264,Syria,SY,760,145,Western Asia,AS,Asia,
361058,Alexandria,Alexandria,31.21564,29.95527,,3811516,Egypt,EG,818,15,Northern Africa,AF,Africa,
2507480,Algiers,Algiers,36.7525,3.04197,,1977663,Algeria,DZ,12,15,Northern Africa,AF,Africa,
225284,Ali Sabih,Ali Sabieh,11.15583,42.7125,,40074,Djibouti,DJ,262,14,Eastern Africa,AF,Africa,
3576397,All Saints,All Saints,17.06671,-61.79303,,2526,Antigua and Barbuda,AG,28,29,Caribbean,SA,South America,
1278994,Allahabad,Allahābād,25.44894,81.83328,431,1073438,India,IN,356,34,Southern Asia,AS,Asia,
1526384,Almaty,Almaty,43.25654,76.92848,,2000900,Kazakhstan,KZ,398,143,Central Asia,AS,Asia,
4036284,Alofi,Alofi,-19.05952,-169.91867,,624,Niue,NU,570,61,Polynesia,OC,Oceania,
250441,Amman,Amman,31.95522,35.94503,,1275857,Jordan,JO,400,145,Western Asia,AS,Asia,
1278710,Amritsar,Amritsar,31.63661,74.87476,448,1092450,India,IN,356,34,Southern Asia,AS,Asia,
2759794,Amsterdam,Amsterdam,52.37403,4.88969,,741636,Netherlands,NL,528,155,Western Europe,EU,Europe,
4035755,Amuri,Amuri,-18.85529,-159.79331,,285,Cook Islands,CK,184,61,Polynesia,OC,Oceania,
3041563,Andorra la Vella,Andorra la Vella,42.50779,1.52109,,20430,Andorra,AD,20,39,Southern Europe,EU,Europe,
323786,Ankara,Ankara,39.91987,32.85427,,3517182,Turkey,TR,792,145,Western Asia,AS,Asia,
7267914,Anna's Retreat,Anna's Retreat,18.3408,-64.88848,,0,U.S. Virgin Islands,VI,850,29,Caribbean,SA,South America,
1817990,Anqiu,Anqiu,36.43417,119.1925,406,105665,China,CN,156,30,Eastern Asia,AS,Asia,
2038632,Anshan,Anshan,41.12361,122.99,230,1199275,China,CN,156,30,Eastern Asia,AS,Asia,
1817968,Anshun,Anshun,26.25,105.93333,,351936,China,CN,156,30,Eastern Asia,AS,Asia,
323777,Antalya,Antalya,36.90812,30.69556,760,758188,Turkey,TR,792,145,Western Asia,AS,Asia,
1070940,Antananarivo,Antananarivo,-18.91368,47.53613,,1391433,Madagascar,MG,450,14,Eastern Africa,AF,Africa,
2803138,Antwerp,Antwerpen,51.21989,4.40346,,459805,Belgium,BE,56,155,Western Europe,EU,Europe,
1785294,Anyang,Anyang,36.09944,114.32889,,781129,China,CN,156,30,Eastern Asia,AS,Asia,
4035413,Apia,Apia,-13.83333,-171.76666,,40407,Samoa,WS,882,61,Polynesia,OC,Oceania,
3947322,Arequipa,Arequipa,-16.39889,-71.535,,841130,Peru,PE,604,5,South America,SA,South America,
1278314,Asansol,Āsansol,23.68333,86.98333,410,504271,India,IN,356,34,Southern Asia,AS,Asia,
2110415,Asau Village,Asau Village,-7.49026,178.68016,,250,Tuvalu,TV,798,61,Polynesia,OC,Oceania,
162183,Ashgabat,Ashgabat,37.95,58.38333,,727700,Turkmenistan,TM,795,143,Central Asia,AS,Asia,
343300,Asmara,Asmara,15.33805,38.93184,,563930,Eritrea,ER,232,14,Eastern Africa,AF,Africa,
343386,Assab,Assab,13.00917,42.73944,,21300,Eritrea,ER,232,14,Eastern Africa,AF,Africa,
1526273,Astana,Astana,51.1801,71.44598,,345604,Kazakhstan,KZ,398,143,Central Asia,AS,Asia,
3439389,Asunción,Asunción,-25.30066,-57.63591,,1482200,Paraguay,PY,600,5,South America,SA,South America,
107968,Ta'if,Ta’if,21.27028,40.41583,993,530848,Saudi Arabia,SA,682,145,Western Asia,AS,Asia,
7522183,Atafu,Atafu Village,-8.54212,-172.51591,,524,Tokelau,TK,772,61,Polynesia,OC,Oceania,
264371,Athens,Athens,37.97945,23.71622,,729137,Greece,GR,300,39,Southern Europe,EU,Europe,
4180439,Atlanta,Atlanta,33.749,-84.38798,68,420003,United States,US,840,21,North America,NA,North America,
2193733,Auckland,Auckland,-36.86667,174.76667,,417910,New Zealand,NZ,554,53,Australia and New Zealand,OC,Oceania,
4671654,Austin,Austin,30.26715,-97.74306,740,790390,United States,US,840,21,North America,NA,North America,
4035715,Avarua,Avarua,-21.20778,-159.775,,13373,Cook Islands,CK,184,61,Polynesia,OC,Oceania,
4036279,Avatele,Avatele,-19.1,-169.91667,,150,Niue,NU,570,61,Polynesia,OC,Oceania,
263824,Agios Nikolaos,Ágios Nikólaos,35.19106,25.71524,,10799,Greece,GR,300,39,Southern Europe,EU,Europe,
98182,Baghdad,Baghdad,33.34058,44.40088,,5672513,Iraq,IQ,368,145,Western Asia,AS,Asia,
7601762,Bairiki Village,Bairiki Village,1.32924,172.97522,,2766,Kiribati,KI,296,57,Micronesia,OC,Oceania,
587084,Baku,Baku,40.37767,49.89201,,1116513,Azerbaijan,AZ,31,145,Western Asia,AS,Asia,
4347778,Baltimore,Baltimore,39.29038,-76.61219,162,620961,United States,US,840,21,North America,NA,North America,
2460596,Bamako,Bamako,12.65,-8,,1297281,Mali,ML,466,11,Western Africa,AF,Africa,
1820906,Bandar Seri Begawan,Bandar Seri Begawan,4.94029,114.94806,,64409,Brunei,BN,96,35,South-Eastern Asia,AS,Asia,
1650357,Bandung,Bandung,-6.90389,107.61861,85,1699719,Indonesia,ID,360,35,South-Eastern Asia,AS,Asia,
1277333,Bangalore,Bangalore,12.97194,77.59369,42,5104047,India,IN,356,34,Southern Asia,AS,Asia,
1609350,Bangkok,Bangkok,13.75398,100.50144,,5104476,Thailand,TH,764,35,South-Eastern Asia,AS,Asia,
2389853,Bangui,Bangui,4.36122,18.55496,,542393,Central African Republic,CF,140,17,Middle Africa,AF,Africa,
3204541,Banja Luka,Banja Luka,44.77583,17.18556,,221106,Bosnia and Herzegovina,BA,70,39,Southern Europe,EU,Europe,
2413876,Banjul,Banjul,13.45274,-16.57803,,34589,Gambia,GM,270,11,Western Africa,AF,Africa,
1547382,Bantam Village,Bantam Village,-12.11645,96.89497,,500,Cocos [Keeling] Islands,CC,,,,,,
2038432,Baotou,Baotou,40.65222,109.82222,216,1301768,China,CN,156,30,Eastern Asia,AS,Asia,
3128760,Barcelona,Barcelona,41.38879,2.15899,,1621537,Spain,ES,724,39,Southern Europe,EU,Europe,
2731990,Barentsburg,Barentsburg,78.06438,14.18585,,576,Svalbard and Jan Mayen,SJ,744,154,Northern Europe,EU,Europe,
1510853,Barnaul,Barnaul,53.36056,83.76361,782,599579,Russia,RU,643,151,Eastern Europe,EU,Europe,
3648522,Barquisimeto,Barquisimeto,10.07389,-69.32278,595,809490,Venezuela,VE,862,5,South America,SA,South America,
3689147,Barranquilla,Barranquilla,10.96854,-74.78132,374,1380425,Colombia,CO,170,5,South America,SA,South America,
99532,Basra,Al Başrah,30.53302,47.79747,,2600000,Iraq,IQ,368,145,Western Asia,AS,Asia,
3575551,Basseterre,Basseterre,17.29484,-62.7261,,12920,Saint Kitts and Nevis,KN,659,29,Caribbean,SA,South America,
2310046,Bata,Bata,1.86391,9.76582,,173046,Equatorial Guinea,GQ,226,17,Middle Africa,AF,Africa,
1831797,Battambang,Battambang,13.10271,103.19822,,150444,Cambodia,KH,116,35,South-Eastern Asia,AS,Asia,
4562831,Bayamón,Bayamón,18.39856,-66.15572,,203499,Puerto Rico,PR,630,29,Caribbean,SA,South America,
1816807,Bazhou,Bazhou,31.85372,106.7586,351,0,China,CN,156,30,Eastern Asia,AS,Asia,
1816670,Beijing,Beijing,39.9075,116.39723,,7480601,China,CN,156,30,Eastern Asia,AS,Asia,
1816644,Beiliu,Beiliu,35.46806,112.555,432,0,China,CN,156,30,Eastern Asia,AS,Asia,
276781,Beirut,Beirut,33.88894,35.49442,,1916100,Lebanon,LB,422,145,Western Asia,AS,Asia,
3405870,Belém,Belém,-1.45583,-48.50444,260,1407737,Brazil,BR,76,5,South America,SA,South America,
792680,Belgrade,Belgrade,44.80401,20.46513,,1273651,Serbia,RS,688,39,Southern Europe,EU,Europe,
3582677,Belize City,Belize City,17.49952,-88.19756,,61461,Belize,BZ,84,13,Central America,SA,South America,
3582672,Belmopan,Belmopan,17.25,-88.76667,,13381,Belize,BZ,84,13,Central America,SA,South America,
3470127,Belo Horizonte,Belo Horizonte,-19.92083,-43.93778,57,2373224,Brazil,BR,76,5,South America,SA,South America,
88319,Benghazi,Benghazi,32.11486,20.06859,,650629,Libya,LY,434,15,Northern Africa,AF,Africa,
2555745,Beni Mellal,Beni Mellal,32.33725,-6.34984,458,166399,Morocco,MA,504,15,Northern Africa,AF,Africa,
2347283,Benin City,Benin City,6.33504,5.62749,660,1125058,Nigeria,NG,566,11,Western Africa,AF,Africa,
2038300,Benxi,Benxi,41.28861,123.765,470,987717,China,CN,156,30,Eastern Asia,AS,Asia,
64435,Berbera,Berbera,10.43959,45.01432,,242344,Somalia,SO,706,14,Eastern Africa,AF,Africa,
3161732,Bergen,Bergen,60.39299,5.32415,,213585,Norway,NO,578,154,Northern Europe,EU,Europe,
2950159,Berlin,Berlin,52.52437,13.41053,,3426354,Germany,DE,276,155,Western Europe,EU,Europe,
2661552,Bern,Bern,46.94809,7.44744,,121631,Switzerland,CH,756,155,Western Europe,EU,Europe,
3576856,Bexon,Bexon,13.95,-60.96667,,0,Saint Lucia,LC,662,29,Caribbean,SA,South America,
1275841,Bhopal,Bhopal,23.25469,77.40289,252,1599914,India,IN,356,34,Southern Asia,AS,Asia,
1816373,Bijie,Bijie,27.30193,105.28627,390,77645,China,CN,156,30,Eastern Asia,AS,Asia,
2388873,Bimbo,Bimbo,4.25671,18.41583,,129655,Central African Republic,CF,140,17,Middle Africa,AF,Africa,
2563191,Birkirkara,Birkirkara,35.89722,14.46111,,21676,Malta,MT,470,39,Southern Europe,EU,Europe,
2655603,Birmingham,Birmingham,52.48142,-1.89983,,984333,United Kingdom,GB,826,154,Northern Europe,EU,Europe,
1528675,Bishkek,Bishkek,42.87,74.59,,900000,Kyrgyzstan,KG,417,143,Central Asia,AS,Asia,
2374775,Bissau,Bissau,11.86357,-15.59767,,388028,Guinea-Bissau,GW,624,11,Western Africa,AF,Africa,
792578,Bitola,Bitola,41.03111,21.34028,,86528,Macedonia,MK,807,39,Southern Europe,EU,Europe,
931755,Blantyre,Blantyre,-15.78499,35.00854,,584877,Malawi,MW,454,14,Eastern Africa,AF,Africa,
2410048,Bo,Bo,7.96472,-11.73833,,174354,Sierra Leone,SL,694,11,Western Africa,AF,Africa,
2362344,Bobo-Dioulasso,Bobo-Dioulasso,11.17715,-4.2979,,360106,Burkina Faso,BF,854,11,Western Africa,AF,Africa,
3688689,Bogotá,Bogotá,4.60971,-74.08175,,7674366,Colombia,CO,170,5,South America,SA,South America,
2946447,Bonn,Bonn,50.73438,7.09548,170,313125,Germany,DE,276,155,Western Europe,EU,Europe,
3181793,Borgo Maggiore,Borgo Maggiore,43.94193,12.44738,,6424,San Marino,SM,674,39,Southern Europe,EU,Europe,
4930956,Boston,Boston,42.35843,-71.05977,56,617594,United States,US,840,21,North America,NA,North America,
2290956,Bouaké,Bouaké,7.69385,-5.03031,,567481,Ivory Coast,CI,384,11,Western Africa,AF,Africa,
1816234,Bozhou,Bozhou,33.87722,115.77028,286,174140,China,CN,156,30,Eastern Asia,AS,Asia,
7266440,Brades,Brades,16.79183,-62.21058,,1000,Montserrat,MS,500,29,Caribbean,SA,South America,
7266440,Brades,Brades,16.79183,-62.21058,,1000,Montserrat,MS,500,29,Caribbean,SA,South America,
3469058,Brasília,Brasília,-15.77972,-47.92972,,2207718,Brazil,BR,76,5,South America,SA,South America,
3060972,Bratislava,Bratislava,48.14816,17.10674,,423737,Slovakia,SK,703,151,Eastern Europe,EU,Europe,
2260535,Brazzaville,Brazzaville,-4.26613,15.28318,,1284609,Republic of the Congo,CG,178,17,Middle Africa,AF,Africa,
3374036,Bridgetown,Bridgetown,13.1,-59.61667,,98511,Barbados,BB,52,29,Caribbean,SA,South America,
2413753,Brikama,Brikama,13.27136,-16.64944,,77700,Gambia,GM,270,11,Western Africa,AF,Africa,
2174003,Brisbane,Brisbane,-27.46794,153.02809,200,2189878,Australia,AU,36,53,Australia and New Zealand,OC,Oceania,
2654675,Bristol,Bristol,51.45523,-2.59665,935,430713,United Kingdom,GB,826,154,Northern Europe,EU,Europe,
3078610,Brno,Brno,49.19522,16.60796,,369559,Czechia,CZ,203,151,Eastern Europe,EU,Europe,
2800866,Brussels,Brussels,50.85045,4.34878,,1019022,Belgium,BE,56,155,Western Europe,EU,Europe,
683506,Bucharest,Bucharest,44.43225,26.10626,,1877155,Romania,RO,642,151,Eastern Europe,EU,Europe,
1838716,Bucheon-si,Bucheon-si,37.49889,126.78306,661,850731,South Korea,KR,410,30,Eastern Asia,AS,Asia,
3054643,Budapest,Budapest,47.49801,19.03991,,1741041,Hungary,HU,348,151,Eastern Europe,EU,Europe,
3435910,Buenos Aires,Buenos Aires,-34.61315,-58.37723,,13076300,Argentina,AR,32,5,South America,SA,South America,
425378,Bujumbura,Bujumbura,-3.3822,29.3644,,331700,Burundi,BI,108,14,Eastern Africa,AF,Africa,
894701,Bulawayo,Bulawayo,-20.15,28.58333,,699385,Zimbabwe,ZW,716,14,Eastern Africa,AF,Africa,
4959709,Burnt Landing,Burnt Landing,47.08643,-68.36754,,0,United States,US,840,21,North America,NA,North America,
750269,Bursa,Bursa,40.19266,29.08403,303,1412701,Turkey,TR,792,145,Western Asia,AS,Asia,
1838524,Busan,Busan,35.10278,129.04028,,3678555,South Korea,KR,410,30,Eastern Asia,AS,Asia,
2243271,Cabinda,Cabinda,-5.55,12.2,,66020,Angola,AO,24,17,Middle Africa,AF,Africa,
360630,Cairo,Cairo,30.06263,31.24967,,7734614,Egypt,EG,818,15,Northern Africa,AF,Africa,
5913490,Calgary,Calgary,51.05011,-114.08529,399,1019942,Canada,CA,124,21,North America,NA,North America,
3687925,Santiago de Cali,Cali,3.43722,-76.5225,157,2392877,Colombia,CO,170,5,South America,SA,South America,
1683013,Tanza,Tanza,14.6753,120.9389,357,105510,Philippines,PH,608,35,South-Eastern Asia,AS,Asia,
3467865,Campinas,Campinas,-22.90556,-47.06083,135,1031554,Brazil,BR,76,5,South America,SA,South America,
2172517,Canberra,Canberra,-35.28346,149.12807,,367752,Australia,AU,36,53,Australia and New Zealand,OC,Oceania,
8504974,Canefield,Canefield,15.33137,-61.38916,,0,Dominica,DM,212,29,Caribbean,SA,South America,
3369157,Cape Town,Cape Town,-33.92584,18.42322,110,3433441,South Africa,ZA,710,18,Southern Africa,AF,Africa,
3646738,Caracas,Caracas,10.48801,-66.87919,,3000000,Venezuela,VE,862,5,South America,SA,South America,
2553604,Casablanca,Casablanca,33.58831,-7.61138,,3144909,Morocco,MA,504,15,Northern Africa,AF,Africa,
3576854,Bisée,Bisée,14.01667,-60.96667,,12980,Saint Lucia,LC,662,29,Caribbean,SA,South America,
3382160,Cayenne,Cayenne,4.93333,-52.33333,,61550,French Guiana,GF,254,5,South America,SA,South America,
8406670,Cenxi,Cenxi,28.33803,109.10878,,0,China,CN,156,30,Eastern Asia,AS,Asia,
3202641,Cetinje,Cetinje,42.39063,18.91417,,15137,Montenegro,ME,499,39,Southern Europe,EU,Europe,
3574810,Chaguanas,Chaguanas,10.51667,-61.41667,,67433,Trinidad and Tobago,TT,780,29,Caribbean,SA,South America,
2038180,Changchun,Changchun,43.88,125.32278,134,2537421,China,CN,156,30,Eastern Asia,AS,Asia,
1791121,Changde,Changde,29.04638,111.6783,288,517780,China,CN,156,30,Eastern Asia,AS,Asia,
1815577,Changsha,Changsha,28.19874,112.97087,137,2073938,China,CN,156,30,Eastern Asia,AS,Asia,
7283386,Changshu City,Changshu City,31.64615,120.74221,325,1047700,China,CN,156,30,Eastern Asia,AS,Asia,
1815456,Changzhou,Changzhou,31.77358,119.95401,412,949018,China,CN,156,30,Eastern Asia,AS,Asia,
1815427,Chaohu,Chaohu,31.6,117.86667,,138463,China,CN,156,30,Eastern Asia,AS,Asia,
2038120,Chaoyang,Chaoyang,41.57028,120.45861,180,410005,China,CN,156,30,Eastern Asia,AS,Asia,
3575479,Charlestown,Charlestown,17.13333,-62.61667,,1538,Saint Kitts and Nevis,KN,659,29,Caribbean,SA,South America,
4795467,Charlotte Amalie,Charlotte Amalie,18.3419,-64.9307,843,20000,U.S. Virgin Islands,VI,850,29,Caribbean,SA,South America,
4795467,Charlotte Amalie,Charlotte Amalie,18.3419,-64.9307,,20000,U.S. Virgin Islands,VI,850,29,Caribbean,SA,South America,
1508291,Chelyabinsk,Chelyabinsk,55.15402,61.42915,408,1062919,Russia,RU,643,151,Eastern Europe,EU,Europe,
1815286,Chengdu,Chengdu,30.66667,104.06667,74,3950437,China,CN,156,30,Eastern Asia,AS,Asia,
1264527,Chennai,Chennai,13.08784,80.27847,34,4328063,India,IN,356,34,Southern Asia,AS,Asia,
1845604,Cheongju-si,Cheongju-si,36.63722,127.48972,880,634596,South Korea,KR,410,30,Eastern Asia,AS,Asia,
2113015,Chiba,Chiba,35.60472,140.12333,495,919729,Japan,JP,392,30,Eastern Asia,AS,Asia,
4887398,Chicago,Chicago,41.85003,-87.65005,25,2695598,United States,US,840,21,North America,NA,North America,
2038067,Chifeng,Chifeng,42.26833,118.96361,376,346654,China,CN,156,30,Eastern Asia,AS,Asia,
618426,Chişinău,Chişinău,47.00556,28.8575,,635994,Moldova,MD,498,151,Eastern Europe,EU,Europe,
1205733,Chittagong,Chittagong,22.3384,91.83168,,3920222,Bangladesh,BD,50,34,Southern Asia,AS,Asia,
1611110,Chon Buri,Chon Buri,13.3622,100.98345,910,219164,Thailand,TH,764,35,South-Eastern Asia,AS,Asia,
1814906,Chongqing,Chongqing,29.56278,106.55278,69,3967028,China,CN,156,30,Eastern Asia,AS,Asia,
3439101,Ciudad del Este,Ciudad del Este,-25.50972,-54.61111,,320782,Paraguay,PY,600,5,South America,SA,South America,
3645528,Ciudad Guayana,Ciudad Guayana,8.35122,-62.64102,798,746535,Venezuela,VE,862,5,South America,SA,South America,
7332364,Cixi,Cixi,31.11184,120.22466,335,0,China,CN,156,30,Eastern Asia,AS,Asia,
681290,Cluj-Napoca,Cluj-Napoca,46.76667,23.6,,316748,Romania,RO,642,151,Eastern Europe,EU,Europe,
3576994,Cockburn Town,Cockburn Town,21.46122,-71.14188,,3720,Turks and Caicos Islands,TC,796,29,Caribbean,SA,South America,
1273865,Coimbatore,Coimbatore,11.00555,76.96612,253,959823,India,IN,356,34,Southern Asia,AS,Asia,
3465927,Colombo,Colombo,-25.29167,-49.22417,160,217000,Brazil,BR,76,5,South America,SA,South America,
4509177,Columbus,Columbus,39.96118,-82.99879,681,787033,United States,US,840,21,North America,NA,North America,
2422465,Conakry,Conakry,9.53795,-13.67729,,1767200,Guinea,GN,324,11,Western Africa,AF,Africa,
2618425,Copenhagen,Copenhagen,55.67594,12.56553,,1153615,Denmark,DK,208,154,Northern Europe,EU,Europe,
3860259,Córdoba,Córdoba,-31.4135,-64.18105,,1428214,Argentina,AR,32,5,South America,SA,South America,
2965140,Cork,Cork,51.89797,-8.47061,,190384,Ireland,IE,372,154,Northern Europe,EU,Europe,
2394819,Cotonou,Cotonou,6.36536,2.41833,,690584,Benin,BJ,204,11,Western Africa,AF,Africa,
2394819,Cotonou,Cotonou,6.36536,2.41833,,690584,Benin,BJ,204,11,Western Africa,AF,Africa,
3513794,Cul de Sac,Cul de Sac,18.03868,-63.06542,,8467,Sint Maarten,SX,534,29,Caribbean,SA,South America,
3464975,Curitiba,Curitiba,-25.42778,-49.27306,111,1718421,Brazil,BR,76,5,South America,SA,South America,
1835329,Daegu,Daegu,35.87028,128.59111,136,2566540,South Korea,KR,410,30,Eastern Asia,AS,Asia,
1835235,Daejeon,Daejeon,36.32139,127.41972,248,1475221,South Korea,KR,410,30,Eastern Asia,AS,Asia,
1813322,Dafeng,Dafeng,30.00366,121.86227,,0,China,CN,156,30,Eastern Asia,AS,Asia,
2253354,Dakar,Dakar,14.6937,-17.44406,,2476400,Senegal,SN,686,11,Western Africa,AF,Africa,
2463447,Dakhla,Dakhla,23.68477,-15.95798,,75000,Western Sahara,EH,732,15,Northern Africa,AF,Africa,
1814087,Dalian,Dalian,38.91222,121.60222,147,2035307,China,CN,156,30,Eastern Asia,AS,Asia,
4684888,Dallas,Dallas,32.78306,-96.80667,53,1197816,United States,US,840,21,North America,NA,North America,
170654,Damascus,Damascus,33.5102,36.29128,,1569394,Syria,SY,760,145,Western Asia,AS,Asia,
2037886,Dandong,Dandong,40.12917,124.39472,,631973,China,CN,156,30,Eastern Asia,AS,Asia,
2037860,Daqing,Daqing,46.58333,125,276,203488,China,CN,156,30,Eastern Asia,AS,Asia,
160263,Dar es Salaam,Dar es Salaam,-6.82349,39.26951,,2698652,Tanzania,TZ,834,14,Eastern Africa,AF,Africa,
160263,Dar es Salaam,Dar es Salaam,-6.82349,39.26951,,2698652,Tanzania,TZ,834,14,Eastern Africa,AF,Africa,
1943194,Dare,Dare,-8.59278,125.56917,,0,East Timor,TL,626,35,South-Eastern Asia,AS,Asia,
2037799,Datong,Datong,40.09361,113.29139,235,1052678,China,CN,156,30,Eastern Asia,AS,Asia,
460413,Daugavpils,Daugavpils,55.88333,26.53333,,111564,Latvia,LV,428,154,Northern Europe,EU,Europe,
1715348,Davao City,Davao,7.07306,125.61278,381,1212504,Philippines,PH,608,35,South-Eastern Asia,AS,Asia,
3711668,David,David,8.42729,-82.43085,,82859,Panama,PA,591,13,Central America,SA,South America,
721472,Debrecen,Debrecen,47.53333,21.63333,,204124,Hungary,HU,348,151,Eastern Europe,EU,Europe,
1234569,Mount Lavinia,Mount Lavinia,6.83389,79.86444,,0,Sri Lanka,LK,144,34,Southern Asia,AS,Asia,
174036,Al ‘Ashārah,Al ‘Ashārah,34.92319,40.5595,606,0,Syria,SY,760,145,Western Asia,AS,Asia,
1273294,Delhi,Delhi,28.65381,77.22897,9,10927986,India,IN,356,34,Southern Asia,AS,Asia,
1812990,Dengzhou,Dengzhou,32.68222,112.08194,308,59338,China,CN,156,30,Eastern Asia,AS,Asia,
5419384,Denver,Denver,39.73915,-104.9847,158,600158,United States,US,840,21,North America,NA,North America,
4990729,Detroit,Detroit,42.33143,-83.04575,75,713777,United States,US,840,21,North America,NA,North America,
1185241,Dhaka,Dhaka,23.7104,90.40744,,10356500,Bangladesh,BD,50,34,Southern Asia,AS,Asia,
1272979,Dhanbad,Dhanbād,23.80199,86.44324,417,219636,India,IN,356,34,Southern Asia,AS,Asia,
1645457,Dili,Dili,-8.55861,125.57361,,150000,East Timor,TL,626,35,South-Eastern Asia,AS,Asia,
1812728,Dingzhou,Dingzhou,38.51306,114.99556,398,152934,China,CN,156,30,Eastern Asia,AS,Asia,
338832,Dire Dawa,Dire Dawa,9.59306,41.86611,,252279,Ethiopia,ET,231,14,Eastern Africa,AF,Africa,
316541,Diyarbakır,Diyarbakır,37.91583,40.21889,869,644763,Turkey,TR,792,145,Western Asia,AS,Asia,
223817,Djibouti,Djibouti,11.58901,43.14503,,623891,Djibouti,DJ,262,14,Eastern Africa,AF,Africa,
709930,Dnipropetrovsk,Dnipropetrovsk,48.45,34.98333,433,1032822,Ukraine,UA,804,151,Eastern Europe,EU,Europe,
160196,Dodoma,Dodoma,-6.17221,35.73947,,180541,Tanzania,TZ,834,14,Eastern Africa,AF,Africa,
3177564,Dogana,Dogana,43.98034,12.49051,,0,San Marino,SM,674,39,Southern Europe,EU,Europe,
290030,Doha,Doha,25.27932,51.52245,,344939,Qatar,QA,634,145,Western Asia,AS,Asia,
709717,Donetsk,Donets’k,48.023,37.80224,451,1024700,Ukraine,UA,804,151,Eastern Europe,EU,Europe,
1812545,Dongguan,Dongguan,23.04889,113.74472,32,390219,China,CN,156,30,Eastern Asia,AS,Asia,
1812228,Dongtai,Dongtai,32.85231,120.30947,367,110988,China,CN,156,30,Eastern Asia,AS,Asia,
1791056,Dongyang,Dongyang,29.26778,120.22528,,130387,China,CN,156,30,Eastern Asia,AS,Asia,
2232593,Douala,Douala,4.04827,9.70428,,1338082,Cameroon,CM,120,17,Middle Africa,AF,Africa,
3042237,Douglas,Douglas,54.15,-4.48333,,26218,Isle of Man,IM,833,154,Northern Europe,EU,Europe,
292223,Dubai,Dubai,25.25817,55.30472,,1137347,United Arab Emirates,AE,784,145,Western Asia,AS,Asia,
2964574,Dublin,Dublin,53.33306,-6.24889,,1024027,Ireland,IE,372,154,Northern Europe,EU,Europe,
1007311,Durban,Durban,-29.8579,31.0292,99,3120282,South Africa,ZA,710,18,Southern Africa,AF,Africa,
3185728,Durrës,Durrës,41.32306,19.44139,,122034,Albania,AL,8,39,Southern Europe,EU,Europe,
1221874,Dushanbe,Dushanbe,38.53575,68.77905,,679400,Tajikistan,TJ,762,143,Central Asia,AS,Asia,
921900,Dzaoudzi,Dzaoudzi,-12.78339,45.25693,,15339,Mayotte,YT,175,14,Eastern Africa,AF,Africa,
6806225,Ebeye,Ebeye,8.77889,167.73806,,0,Marshall Islands,MH,584,57,Micronesia,OC,Oceania,
3370726,Edinburgh of the Seven Seas,Edinburgh of the Seven Seas,-37.06757,-12.31155,,271,Saint Helena,SH,654,11,Western Africa,AF,Africa,
5946768,Edmonton,Edmonton,53.55014,-113.46871,430,712391,Canada,CA,124,21,North America,NA,North America,
1486209,Yekaterinburg,Yekaterinburg,56.8519,60.6122,292,1349772,Russia,RU,643,151,Eastern Europe,EU,Europe,
2462881,El Aaiún,Laâyoune / El Aaiún,27.16224,-13.20315,,196331,Western Sahara,EH,732,15,Northern Africa,AF,Africa,
3924132,Alto Porvenir,Alto Porvenir,-11.35,-69.21667,,0,Bolivia,BO,68,5,South America,SA,South America,
5520993,El Paso,El Paso,31.75872,-106.48693,866,649121,United States,US,840,21,North America,NA,North America,
2550078,El Jadida,El Jadida,33.25492,-8.50602,401,147549,Morocco,MA,504,15,Northern Africa,AF,Africa,
1811720,Enshi,Enshi,30.3,109.48333,,95227,China,CN,156,30,Eastern Asia,AS,Asia,
2031405,Erdenet,Erdenet,49.03333,104.08333,,79647,Mongolia,MN,496,30,Eastern Asia,AS,Asia,
2960596,Esch-sur-Alzette,Esch-sur-Alzette,49.49583,5.98056,,28228,Luxembourg,LU,442,155,Western Europe,EU,Europe,
418863,Isfahan,Isfahan,32.65246,51.67462,238,1547164,Iran,IR,364,34,Southern Asia,AS,Asia,
660158,Espoo,Espoo,60.2052,24.6522,,256760,Finland,FI,246,154,Northern Europe,EU,Europe,
2928810,Essen,Essen,51.45657,7.01228,36,593085,Germany,DE,276,155,Western Europe,EU,Europe,
1811619,Ezhou,Ezhou,30.4,114.83333,439,193652,China,CN,156,30,Eastern Asia,AS,Asia,
1179400,Faisalabad,Faisalābād,31.41667,73.08333,128,2506595,Pakistan,PK,586,34,Southern Asia,AS,Asia,
4031110,Fale old settlement,Fale old settlement,-9.38516,-171.24675,,120,Tokelau,TK,772,61,Polynesia,OC,Oceania,
1271951,Faridabad,Farīdābād,28.41252,77.31977,422,1220229,India,IN,356,34,Southern Asia,AS,Asia,
1789176,Feicheng,Feicheng,36.24861,116.76583,486,77606,China,CN,156,30,Eastern Asia,AS,Asia,
2037411,Fengcheng,Fengcheng,40.45361,124.07167,334,120514,China,CN,156,30,Eastern Asia,AS,Asia,
2548885,Fes,Fès,34.03715,-4.9998,352,964891,Morocco,MA,504,15,Northern Africa,AF,Africa,
3577004,Five Cays Settlement,Five Cays Settlement,21.75711,-72.26772,,0,Turks and Caicos Islands,TC,796,29,Caribbean,SA,South America,
2078127,Flying Fish Cove,Flying Fish Cove,-10.42172,105.67912,,500,Christmas Island,CX,,,,,,
4691930,Fort Worth,Fort Worth,32.72541,-97.32085,823,741206,United States,US,840,21,North America,NA,North America,
3399415,Fortaleza,Fortaleza,-3.71722,-38.54306,97,2400000,Brazil,BR,76,5,South America,SA,South America,
1811103,Foshan,Foshan,23.02677,113.13148,,627348,China,CN,156,30,Eastern Asia,AS,Asia,
933778,Francistown,Francistown,-21.16995,27.50788,,89979,Botswana,BW,72,18,Southern Africa,AF,Africa,
2925533,Frankfurt am Main,Frankfurt am Main,50.11552,8.68417,142,650000,Germany,DE,276,155,Western Europe,EU,Europe,
3572375,Freeport,Freeport,26.53333,-78.7,,26910,Bahamas,BS,44,29,Caribbean,SA,South America,
2409306,Freetown,Freetown,8.484,-13.22994,,802639,Sierra Leone,SL,694,11,Western Africa,AF,Africa,
1863967,Fukuoka,Fukuoka-shi,33.60639,130.41806,154,1392289,Japan,JP,392,30,Eastern Asia,AS,Asia,
2110394,Funafuti,Funafuti,-8.52425,179.19417,,4492,Tuvalu,TV,798,61,Polynesia,OC,Oceania,
1797120,Fuqing,Fuqing,25.725,119.37944,362,67397,China,CN,156,30,Eastern Asia,AS,Asia,
2037355,Fushun,Fushun,41.85583,123.92333,258,1400646,China,CN,156,30,Eastern Asia,AS,Asia,
1810845,Fuyang,Fuyang,32.9,115.81667,207,170023,China,CN,156,30,Eastern Asia,AS,Asia,
1810821,Fuzhou,Fuzhou,26.06139,119.30611,187,1179720,China,CN,156,30,Eastern Asia,AS,Asia,
933773,Gaborone,Gaborone,-24.65451,25.90859,,208411,Botswana,BW,72,18,Southern Africa,AF,Africa,
2372532,Gabú,Gabú,12.28333,-14.21667,,14430,Guinea-Bissau,GW,624,11,Western Africa,AF,Africa,
614622,Gagra,Gagra,43.30387,40.25614,,8266,Georgia,GE,268,145,Western Asia,AS,Asia,
586523,Gǝncǝ,Ganja,40.68278,46.36056,,313300,Azerbaijan,AZ,31,145,Western Asia,AS,Asia,
1980502,Gaocheng,Gaocheng,23.62444,117.1225,,0,China,CN,156,30,Eastern Asia,AS,Asia,
1810295,Gaozhou,Gaozhou,21.93924,110.84607,333,166069,China,CN,156,30,Eastern Asia,AS,Asia,
7267930,Garapan Village,Garapan Village,15.20545,145.72025,,0,Northern Mariana Islands,MP,,,,,,
281133,Gaza,Gaza,31.5,34.46667,,410000,Palestine,PS,275,145,Western Asia,AS,Asia,
314830,Gaziantep,Gaziantep,37.05944,37.3825,493,1065975,Turkey,TR,792,145,Western Asia,AS,Asia,
2277060,Gbarnga,Gbarnga,6.99556,-9.47222,,45835,Liberia,LR,430,11,Western Africa,AF,Africa,
2660646,Geneva,Genève,46.20222,6.14569,,183981,Switzerland,CH,756,155,Western Europe,EU,Europe,
3580661,George Town,George Town,19.2866,-81.37436,,29370,Cayman Islands,KY,136,29,Caribbean,SA,South America,
3378644,Georgetown,Georgetown,6.80448,-58.15527,,235017,Guyana,GY,328,5,South America,SA,South America,
1271308,Ghaziabad,Ghāziābād,28.66249,77.43777,476,1199191,India,IN,356,34,Southern Asia,AS,Asia,
2411585,Gibraltar,Gibraltar,36.14474,-5.35257,,26544,Gibraltar,GI,292,39,Southern Europe,EU,Europe,
202217,Gitarama,Gitarama,-2.07444,29.75667,,87613,Rwanda,RW,646,14,Eastern Africa,AF,Africa,
360995,Giza,Al Jīzah,30.00808,31.21093,184,2443203,Egypt,EG,818,15,Northern Africa,AF,Africa,
2108857,Gizo,Gizo,-8.10303,156.84186,,6154,Solomon Islands,SB,90,54,Melanesia,OC,Oceania,
2648579,Glasgow,Glasgow,55.86515,-4.25763,890,610268,United Kingdom,GB,826,154,Northern Europe,EU,Europe,
3462377,Goiânia,Goiânia,-16.67861,-49.25389,331,1171195,Brazil,BR,76,5,South America,SA,South America,
3724696,Gonaïves,Gonaïves,19.44749,-72.68903,,84961,Haiti,HT,332,29,Caribbean,SA,South America,
1789897,Gongyi,Gongyi,34.76,112.97139,,56033,China,CN,156,30,Eastern Asia,AS,Asia,
2037222,Gongzhuling,Gongzhuling,43.50075,124.81979,434,140909,China,CN,156,30,Eastern Asia,AS,Asia,
3426996,Goose Green Settlement,Goose Green Settlement,-51.82591,-58.96714,,70,Falkland Islands,FK,238,5,South America,SA,South America,
2711537,Gothenburg,Göteborg,57.70716,11.96679,531,504084,Sweden,SE,752,154,Northern Europe,EU,Europe,
2711537,Gothenburg,Göteborg,57.70716,11.96679,,504084,Sweden,SE,752,154,Northern Europe,EU,Europe,
3580279,Gouyave,Gouyave,12.16462,-61.72965,,3378,Grenada,GD,308,29,Caribbean,SA,South America,
1842485,Goyang-si,Goyang-si,37.65639,126.835,659,1073069,South Korea,KR,410,30,Eastern Asia,AS,Asia,
2778067,Graz,Graz,47.06667,15.45,,222326,Austria,AT,40,155,Western Europe,EU,Europe,
3426466,Grytviken,Grytviken,-54.28111,-36.5092,,2,South Georgia and the South Sandwich Islands,GS,,,,,,
4005539,Guadalajara,Guadalajara,20.66682,-103.39182,,1640589,Mexico,MX,484,13,Central America,SA,South America,
1809858,Guangzhou,Guangzhou,23.11667,113.25,407,3152825,China,CN,156,30,Eastern Asia,AS,Asia,
1809858,Guangzhou,Guangzhou,23.11667,113.25,18,3152825,China,CN,156,30,Eastern Asia,AS,Asia,
3461786,Guarulhos,Guarulhos,-23.46278,-46.53333,312,1169577,Brazil,BR,76,5,South America,SA,South America,
3598132,Guatemala City,Guatemala City,14.64072,-90.51327,,994938,Guatemala,GT,320,13,Central America,SA,South America,
3657509,Guayaquil,Guayaquil,-2.20584,-79.90795,,1952029,Ecuador,EC,218,5,South America,SA,South America,
2420562,Gueckedou,Gueckedou,8.56744,-10.1336,,79140,Guinea,GN,324,11,Western Africa,AF,Africa,
1809532,Guigang,Guigang,23.09639,109.60917,264,76430,China,CN,156,30,Eastern Asia,AS,Asia,
1809486,Guiping,Guiping,23.39336,110.07437,282,71066,China,CN,156,30,Eastern Asia,AS,Asia,
1809461,Guiyang,Guiyang,26.58333,106.71667,175,1171633,China,CN,156,30,Eastern Asia,AS,Asia,
1177662,Gujranwala,Gujrānwāla,32.16167,74.18831,386,1384471,Pakistan,PK,586,34,Southern Asia,AS,Asia,
233346,Gulu,Gulu,2.77457,32.29899,,146858,Uganda,UG,800,14,Eastern Africa,AF,Africa,
3579132,Gustavia,Gustavia,17.89618,-62.84978,,5988,Saint Barthélemy,BL,652,29,Caribbean,SA,South America,
1841811,Gwangju,Gwangju,35.15472,126.91556,255,1416938,South Korea,KR,410,30,Eastern Asia,AS,Asia,
616635,Gyumri,Gyumri,40.7942,43.84528,,148381,Armenia,AM,51,145,Western Asia,AS,Asia,
1581130,Hanoi,Hanoi,21.0245,105.84117,91,1431270,Vietnam,VN,,,,,,
4044012,Hagåtña,Hagåtña,13.47567,144.74886,,1051,Guam,GU,316,57,Micronesia,OC,Oceania,
2037086,Haicheng,Haicheng,40.85158,122.74754,354,191651,China,CN,156,30,Eastern Asia,AS,Asia,
1809062,Haimen,Haimen,23.19346,116.61219,489,125427,China,CN,156,30,Eastern Asia,AS,Asia,
1581298,Haiphong,Haiphong,20.86481,106.68345,631,602695,Vietnam,VN,,,,,,
3370936,Half Tree Hollow,Half Tree Hollow,-15.93333,-5.71667,,830,Saint Helena,SH,654,11,Western Africa,AF,Africa,
170017,Hama,Ḩamāh,35.13179,36.75783,237,460602,Syria,SY,760,145,Western Asia,AS,Asia,
2911298,Hamburg,Hamburg,53.57532,10.01534,,1739117,Germany,DE,276,155,Western Europe,EU,Europe,
1877449,Hamhung,Hamhŭng,39.91833,127.53639,,559056,North Korea,KP,408,30,Eastern Asia,AS,Asia,
3573197,Hamilton,Hamilton,32.29528,-64.78107,,902,Bermuda,BM,60,21,North America,NA,North America,
1808977,Hanchuan,Hanchuan,30.65,113.76667,419,87737,China,CN,156,30,Eastern Asia,AS,Asia,
1808963,Handan,Handan,36.60056,114.46778,294,1358318,China,CN,156,30,Eastern Asia,AS,Asia,
4030754,Hanga Roa,Hanga Roa,-27.15474,-109.43241,,3304,Chile,CL,152,5,South America,SA,South America,
1808926,Hangzhou,Hangzhou,30.29365,120.16142,89,1878129,China,CN,156,30,Eastern Asia,AS,Asia,
1270396,Howrah,Hāora,22.57688,88.31857,450,1027672,India,IN,356,34,Southern Asia,AS,Asia,
890299,Harare,Harare,-17.82772,31.05337,,1542813,Zimbabwe,ZW,716,14,Eastern Africa,AF,Africa,
2037013,Harbin,Harbin,45.75,126.65,107,3229883,China,CN,156,30,Eastern Asia,AS,Asia,
57289,Hargeysa,Hargeysa,9.56,44.065,,477876,Somalia,SO,706,14,Eastern Africa,AF,Africa,
3553478,Havana,Havana,23.13302,-82.38304,,2163824,Cuba,CU,192,29,Caribbean,SA,South America,
285066,Hebron,Hebron,31.52935,35.0938,,160470,Palestine,PS,275,145,Western Asia,AS,Asia,
1808212,Hechuan,Hechuan,29.99228,106.26461,262,97575,China,CN,156,30,Eastern Asia,AS,Asia,
1808722,Hefei,Hefei,31.86389,117.28083,217,1388904,China,CN,156,30,Eastern Asia,AS,Asia,
1808614,Hejian,Hejian,38.425,116.08444,,0,China,CN,156,30,Eastern Asia,AS,Asia,
658225,Helsinki,Helsinki,60.16952,24.93545,,558457,Finland,FI,246,154,Northern Europe,EU,Europe,
1808198,Heze,Heze,35.24306,115.44111,313,254602,China,CN,156,30,Eastern Asia,AS,Asia,
1862415,Hiroshima,Hiroshima-shi,34.39627,132.45937,375,1143841,Japan,JP,392,30,Eastern Asia,AS,Asia,
932698,Hlotse,Leribe,-28.87185,28.04501,,47675,Lesotho,LS,426,18,Southern Africa,AF,Africa,
1566083,Ho Chi Minh City,Ho Chi Minh City,10.82302,106.62965,,3467331,Vietnam,VN,,,,,,
627907,Gomel,Gomel,52.4345,30.9754,,480951,Belarus,BY,112,151,Eastern Europe,EU,Europe,
169577,Homs,Homs,34.72682,36.72339,280,775404,Syria,SY,760,145,Western Asia,AS,Asia,
1819729,Hong Kong,Hong Kong,22.28552,114.15769,38,7012738,Hong Kong,HK,344,30,Eastern Asia,AS,Asia,
2108502,Honiara,Honiara,-9.43333,159.95,,56298,Solomon Islands,SB,90,54,Melanesia,OC,Oceania,
4699066,Houston,Houston,29.76328,-95.36327,61,2099451,United States,US,840,21,North America,NA,North America,
1797873,Huai'an,Huai'an,33.58861,119.01917,343,555230,China,CN,156,30,Eastern Asia,AS,Asia,
1807700,Huaibei,Huaibei,33.97444,116.79167,,903039,China,CN,156,30,Eastern Asia,AS,Asia,
1807681,Huainan,Huainan,32.62639,116.99694,283,1027655,China,CN,156,30,Eastern Asia,AS,Asia,
1806960,Huazhou,Huazhou,21.63333,110.58333,452,91701,China,CN,156,30,Eastern Asia,AS,Asia,
2036892,Hohhot,Hohhot,40.81056,111.65222,266,774477,China,CN,156,30,Eastern Asia,AS,Asia,
1806787,Huixian,Huixian,35.45861,113.79778,,0,China,CN,156,30,Eastern Asia,AS,Asia,
1806535,Huzhou,Huzhou,30.8703,120.0933,383,158320,China,CN,156,30,Eastern Asia,AS,Asia,
1269843,Hyderabad,Hyderabad,17.38405,78.45636,43,3597816,India,IN,356,34,Southern Asia,AS,Asia,
2339354,Ibadan,Ibadan,7.38778,3.89639,,3565108,Nigeria,NG,566,11,Western Africa,AF,Africa,
304531,Mersin,Mercin,36.79526,34.61792,902,537842,Turkey,TR,792,145,Western Asia,AS,Asia,
1843564,Incheon,Incheon,37.45646,126.70515,177,2628000,South Korea,KR,410,30,Eastern Asia,AS,Asia,
4259418,Indianapolis,Indianapolis,39.76838,-86.15804,628,829718,United States,US,840,21,North America,NA,North America,
1269743,Indore,Indore,22.71792,75.8333,219,1837041,India,IN,356,34,Southern Asia,AS,Asia,
2023469,Irkutsk,Irkutsk,52.29778,104.29639,894,586695,Russia,RU,643,151,Eastern Europe,EU,Europe,
1176615,Islamabad,Islamabad,33.72148,73.04329,,601600,Pakistan,PK,586,34,Southern Asia,AS,Asia,
745044,Istanbul,İstanbul,41.01384,28.94966,,11174257,Turkey,TR,792,145,Western Asia,AS,Asia,
554840,Izhevsk,Izhevsk,56.84976,53.20448,835,631038,Russia,RU,643,151,Eastern Europe,EU,Europe,
311046,Izmir,İzmir,38.41273,27.13838,130,2500603,Turkey,TR,792,145,Western Asia,AS,Asia,
1269633,Jabalpur,Jabalpur,23.16697,79.95006,395,1030168,India,IN,356,34,Southern Asia,AS,Asia,
4160021,Jacksonville,Jacksonville,30.33218,-81.65565,633,821784,United States,US,840,21,North America,NA,North America,
1269515,Jaipur,Jaipur,26.91962,75.78781,118,2711758,India,IN,356,34,Southern Asia,AS,Asia,
1642911,Jakarta,Jakarta,-6.21462,106.84513,,8540121,Indonesia,ID,360,35,South-Eastern Asia,AS,Asia,
3370903,Jamestown,Jamestown,-15.93872,-5.71675,,637,Saint Helena,SH,654,11,Western Africa,AF,Africa,
1269300,Jamshedpur,Jamshedpur,22.80278,86.18545,402,616338,India,IN,356,34,Southern Asia,AS,Asia,
105343,Jeddah,Jeddah,21.51694,39.21917,,2867446,Saudi Arabia,SA,682,145,Western Asia,AS,Asia,
1845457,Jeonju,Jeonju,35.82194,127.14889,836,711424,South Korea,KR,410,30,Eastern Asia,AS,Asia,
7498240,West Jerusalem,West Jerusalem,31.78199,35.21961,687,400000,Israel,IL,376,145,Western Asia,AS,Asia,
7498240,West Jerusalem,West Jerusalem,31.78199,35.21961,,400000,Israel,IL,376,145,Western Asia,AS,Asia,
1805753,Jinan,Jinan,36.66833,116.99722,153,2069266,China,CN,156,30,Eastern Asia,AS,Asia,
1985152,Jiangdu,Jiangdu,27.51889,119.74556,426,0,China,CN,156,30,Eastern Asia,AS,Asia,
1805798,Jijiang,Jijiang,29.28993,106.25001,297,61161,China,CN,156,30,Eastern Asia,AS,Asia,
1815251,Jiangyin,Chengjiang,31.91102,120.26302,300,107918,China,CN,156,30,Eastern Asia,AS,Asia,
1806123,Jianyang,Jianyang,33.48861,119.74306,265,0,China,CN,156,30,Eastern Asia,AS,Asia,
1806096,Jiaozhou,Jiaozhou,36.28389,120.00333,,165026,China,CN,156,30,Eastern Asia,AS,Asia,
1805987,Jiaozuo,Jiaozuo,35.23972,113.23306,,517540,China,CN,156,30,Eastern Asia,AS,Asia,
2036502,Jilin City,Jilin,43.85083,126.56028,192,1881977,China,CN,156,30,Eastern Asia,AS,Asia,
1805757,Jimo,Jimo,36.38972,120.46222,397,70733,China,CN,156,30,Eastern Asia,AS,Asia,
1805540,Jingzhou,Jingzhou,30.35028,112.19028,359,177878,China,CN,156,30,Eastern Asia,AS,Asia,
1805518,Jining,Jining,35.405,116.58139,429,450327,China,CN,156,30,Eastern Asia,AS,Asia,
1797658,Jinjiang,Jinjiang,24.81978,118.57414,245,89623,China,CN,156,30,Eastern Asia,AS,Asia,
993800,Johannesburg,Johannesburg,-26.20227,28.04363,44,2026469,South Africa,ZA,710,18,Southern Africa,AF,Africa,
1732752,Johor Bahru,Johor Bahru,1.4655,103.7578,,802489,Malaysia,MY,458,35,South-Eastern Asia,AS,Asia,
3041760,Jomala,Jomala,60.14902,19.951,,3662,Åland,AX,248,154,Northern Europe,EU,Europe,
4013708,Ciudad Juárez,Ciudad Juárez,31.73333,-106.48333,293,1512354,Mexico,MX,484,13,Central America,SA,South America,
373303,Juba,Juba,4.85165,31.58247,,300000,South Sudan,SS,728,14,Eastern Africa,AF,Africa,
1138958,Kabul,Kabul,34.52813,69.17233,,3043532,Afghanistan,AF,4,34,Southern Asia,AS,Asia,
99172,Al Kāz̧imīyah,Al Kāz̧imīyah,33.37659,44.33886,992,0,Iraq,IQ,368,145,Western Asia,AS,Asia,
2335727,Kaduna,Kaduna,10.52224,7.43828,461,1582102,Nigeria,NG,566,11,Western Africa,AF,Africa,
1720010,Caloo,Caloo,5.6942,120.8849,358,0,Philippines,PH,608,35,South-Eastern Asia,AS,Asia,
1268295,Kalyān,Kalyān,19.2437,73.13554,348,1262255,India,IN,356,34,Southern Asia,AS,Asia,
232422,Kampala,Kampala,0.31628,32.58219,,1353189,Uganda,UG,800,14,Eastern Africa,AF,Africa,
1138336,Kandahar,Kandahār,31.61332,65.71013,,391190,Afghanistan,AF,4,34,Southern Asia,AS,Asia,
2335204,Kano,Kano,12.00012,8.51672,108,3626068,Nigeria,NG,566,11,Western Africa,AF,Africa,
1267995,Kanpur,Kānpur,26.4478,80.34627,100,2823249,India,IN,356,34,Southern Asia,AS,Asia,
1673820,Kaohsiung City,Kaohsiung,22.61626,120.31333,,1519711,Taiwan,TW,,,,,,
1174872,Karachi,Karachi,24.9056,67.0822,,11624219,Pakistan,PK,586,34,Southern Asia,AS,Asia,
128747,Karaj,Karaj,35.83266,50.99154,336,1448075,Iran,IR,364,34,Southern Asia,AS,Asia,
1283240,Kathmandu,Kathmandu,27.70169,85.3206,,1442271,Nepal,NP,524,34,Southern Asia,AS,Asia,
3096472,Katowice,Katowice,50.25842,19.02754,133,317316,Poland,PL,616,151,Eastern Europe,EU,Europe,
598316,Kaunas,Kaunas,54.9,23.9,,374643,Lithuania,LT,440,154,Northern Europe,EU,Europe,
1859642,Kawasaki,Kawasaki,35.52056,139.71722,296,1306785,Japan,JP,392,30,Eastern Asia,AS,Asia,
2455518,Kayes,Kayes,14.44693,-11.44448,277,78406,Mali,ML,466,11,Western Africa,AF,Africa,
308464,Kayseri,Kayseri,38.73222,35.48528,909,592840,Turkey,TR,792,145,Western Asia,AS,Asia,
551487,Kazan,Kazan,55.78874,49.12214,396,1104738,Russia,RU,643,151,Eastern Europe,EU,Europe,
2022890,Khabarovsk,Khabarovsk,48.48272,135.08379,891,579000,Russia,RU,643,151,Eastern Europe,EU,Europe,
706483,Kharkiv,Kharkiv,49.98081,36.25272,254,1430885,Ukraine,UA,804,151,Eastern Europe,EU,Europe,
706483,Kharkiv,Kharkiv,49.98081,36.25272,,1430885,Ukraine,UA,804,151,Eastern Europe,EU,Europe,
379252,Khartoum,Khartoum,15.55177,32.53241,,1974647,Sudan,SD,729,15,Northern Africa,AF,Africa,
379251,Khartoum North,Khartoum North,15.62889,32.62583,724,0,Sudan,SD,729,15,Northern Africa,AF,Africa,
1514879,Khujand,Khŭjand,40.28256,69.62216,,144865,Tajikistan,TJ,762,143,Central Asia,AS,Asia,
703448,Kyiv,Kiev,50.45466,30.5238,,2797553,Ukraine,UA,804,151,Eastern Europe,EU,Europe,
2378538,Kiffa,Kiffa,16.61659,-11.40453,,40281,Mauritania,MR,478,11,Western Africa,AF,Africa,
202061,Kigali,Kigali,-1.94995,30.05885,,745261,Rwanda,RW,646,14,Eastern Africa,AF,Africa,
3489854,Kingston,Kingston,17.99702,-76.79358,,937700,Jamaica,JM,388,29,Caribbean,SA,South America,
2161314,Kingston,Kingston,-29.05459,167.96628,,880,Norfolk Island,NF,574,53,Australia and New Zealand,OC,Oceania,
3577887,Kingstown,Kingstown,13.15872,-61.22475,,24518,Saint Vincent and the Grenadines,VC,670,29,Caribbean,SA,South America,
2314302,Kinshasa,Kinshasa,-4.32758,15.31357,,7785965,Democratic Republic of the Congo,CD,180,17,Middle Africa,AF,Africa,
1859307,Kitakyushu,Kitakyūshū,33.83333,130.83333,462,997536,Japan,JP,392,30,Eastern Asia,AS,Asia,
911148,Kitwe,Kitwe,-12.80243,28.21323,,400914,Zambia,ZM,894,14,Eastern Africa,AF,Africa,
2618795,Klaksvík,Klaksvík,62.22655,-6.58901,,4664,Faroe Islands,FO,234,154,Northern Europe,EU,Europe,
1859171,Kobe,Kōbe-shi,34.6913,135.183,236,1528478,Japan,JP,392,30,Eastern Asia,AS,Asia,
1273874,Kochi,Cochin,9.93988,76.26022,284,604696,India,IN,356,34,Southern Asia,AS,Asia,
1275004,Kolkata,Kolkata,22.56263,88.36304,12,4631392,India,IN,356,34,Southern Asia,AS,Asia,
2886242,Cologne,Köln,50.93333,6.95,478,963395,Germany,DE,276,155,Western Europe,EU,Europe,
306571,Konya,Konya,37.87135,32.48464,594,875530,Turkey,TR,792,145,Western Asia,AS,Asia,
1559446,Koror State,Koror State,7.33978,134.47326,,14000,Palau,PW,585,57,Micronesia,OC,Oceania,
724443,Košice,Košice,48.71395,21.25808,,236563,Slovakia,SK,703,151,Eastern Europe,EU,Europe,
2454530,Koulikoro,Koulikoro,12.86273,-7.55985,227,23919,Mali,ML,466,11,Western Africa,AF,Africa,
1819609,Kowloon,Kowloon,22.31667,114.18333,,2019533,Hong Kong,HK,344,30,Eastern Asia,AS,Asia,
3094802,Krakow,Kraków,50.06143,19.93658,,755050,Poland,PL,616,151,Eastern Europe,EU,Europe,
542420,Krasnodar,Krasnodar,45.04484,38.97603,637,649851,Russia,RU,643,151,Eastern Europe,EU,Europe,
1502026,Krasnoyarsk,Krasnoyarsk,56.01839,92.86717,494,927200,Russia,RU,643,151,Eastern Europe,EU,Europe,
1820491,Kuala Belait,Kuala Belait,4.58361,114.2312,,31178,Brunei,BN,96,35,South-Eastern Asia,AS,Asia,
1735161,Kuala Lumpur,Kuala Lumpur,3.1412,101.68653,,1453975,Malaysia,MY,458,35,South-Eastern Asia,AS,Asia,
2298890,Kumasi,Kumasi,6.68848,-1.62443,,1468609,Ghana,GH,288,11,Western Africa,AF,Africa,
1804651,Kunming,Kunming,25.03889,102.71833,174,1023674,China,CN,156,30,Eastern Asia,AS,Asia,
1785623,Kunshan,Kunshan,31.37762,120.9543,,107986,China,CN,156,30,Eastern Asia,AS,Asia,
613607,Kutaisi,K'ut'aisi,42.26791,42.69459,,178338,Georgia,GE,268,145,Western Asia,AS,Asia,
285787,Kuwait City,Kuwait City,29.36972,47.97833,,60064,Kuwait,KW,414,145,Western Asia,AS,Asia,
703448,Kyiv,Kiev,50.45466,30.5238,127,2797553,Ukraine,UA,804,151,Eastern Europe,EU,Europe,
1857910,Kyoto,Kyoto,35.02107,135.75385,249,1459640,Japan,JP,392,30,Eastern Asia,AS,Asia,
146412,Kyrenia,Kyrenia,35.34167,33.31667,,26701,Cyprus,CY,196,145,Western Asia,AS,Asia,
3009937,La Condamine,La Condamine,43.7344,7.42024,,12167,Monaco,MC,492,155,Western Europe,EU,Europe,
3885369,La Matanza,La Matanza,-35.82722,-72.45036,393,0,Chile,CL,152,5,South America,SA,South America,
3911925,La Paz,La Paz,-16.5,-68.15,,812799,Bolivia,BO,68,5,South America,SA,South America,
2092740,Lae,Lae,-6.72208,146.98469,,76255,Papua New Guinea,PG,598,54,Melanesia,OC,Oceania,
2332459,Lagos,Lagos,6.45306,3.39583,,9000000,Nigeria,NG,566,11,Western Africa,AF,Africa,
1172451,Lahore,Lahore,31.54972,74.34361,,6310888,Pakistan,PK,586,34,Southern Asia,AS,Asia,
1804591,Laiwu,Laiwu,36.19278,117.65694,328,124108,China,CN,156,30,Eastern Asia,AS,Asia,
1794479,Laixi,Laixi,36.85917,120.52694,,75849,China,CN,156,30,Eastern Asia,AS,Asia,
1804430,Lanzhou,Lanzhou,36.05701,103.83987,188,3200000,China,CN,156,30,Eastern Asia,AS,Asia,
5506956,Las Vegas,Las Vegas,36.17497,-115.13722,945,583756,United States,US,840,21,North America,NA,North America,
173576,Latakia,Latakia,35.53168,35.79011,523,340181,Syria,SY,760,145,Western Asia,AS,Asia,
1804208,Leiyang,Leiyang,26.40238,112.85908,356,129116,China,CN,156,30,Eastern Asia,AS,Asia,
1804243,Leizhou,Leizhou,20.94165,110.08288,317,0,China,CN,156,30,Eastern Asia,AS,Asia,
3383714,Lelydorp,Lelydorp,5.7,-55.23333,,18223,Suriname,SR,740,5,South America,SA,South America,
3618030,León,León,12.43787,-86.87804,,144538,Nicaragua,NI,558,13,Central America,SA,South America,
1804156,Leping,Leping,28.96667,117.11667,,0,China,CN,156,30,Eastern Asia,AS,Asia,
1785952,Yueqing,Yueqing,28.11941,120.9612,371,0,China,CN,156,30,Eastern Asia,AS,Asia,
3040051,Escaldes-Engordany,les Escaldes,42.50729,1.53414,,15853,Andorra,AD,20,39,Southern Europe,EU,Europe,
1804153,Leshan,Leshan,29.56228,103.76386,392,154477,China,CN,156,30,Eastern Asia,AS,Asia,
1804120,Lianjiang,Lianjiang,21.64673,110.28172,342,100341,China,CN,156,30,Eastern Asia,AS,Asia,
1804451,Lianyuan,Lianyuan,27.68833,111.66417,459,66501,China,CN,156,30,Eastern Asia,AS,Asia,
1803834,Liaocheng,Liaocheng,36.44389,115.96472,482,226930,China,CN,156,30,Eastern Asia,AS,Asia,
2036113,Liaoyang,Liaoyang,41.27194,123.17306,,687890,China,CN,156,30,Eastern Asia,AS,Asia,
2399697,Libreville,Libreville,0.39241,9.45356,,578156,Gabon,GA,266,17,Middle Africa,AF,Africa,
1803616,Xishan,Xishan,27.66667,113.5,491,98162,China,CN,156,30,Eastern Asia,AS,Asia,
927967,Lilongwe,Lilongwe,-13.96692,33.78725,,646750,Malawi,MW,454,14,Eastern Africa,AF,Africa,
3936456,Lima,Lima,-12.04318,-77.02824,,7737002,Peru,PE,604,5,South America,SA,South America,
146384,Limassol,Limassol,34.675,33.03333,,154000,Cyprus,CY,196,145,Western Asia,AS,Asia,
3622247,Limón,Limón,9.99074,-83.03596,,63081,Costa Rica,CR,188,13,Central America,SA,South America,
3377408,Linden,Linden,6.00809,-58.30714,,44690,Guyana,GY,328,5,South America,SA,South America,
1803567,Linfen,Linfen,36.08889,111.51889,,232566,China,CN,156,30,Eastern Asia,AS,Asia,
1803422,Linhai,Linhai,28.84815,121.12807,485,152937,China,CN,156,30,Eastern Asia,AS,Asia,
1803318,Linyi,Linyi,35.06306,118.34278,193,270669,China,CN,156,30,Eastern Asia,AS,Asia,
1803327,Linzhou,Linzhou,36.06667,113.81722,469,0,China,CN,156,30,Eastern Asia,AS,Asia,
2267057,Lisbon,Lisbon,38.71667,-9.13333,,517802,Portugal,PT,620,39,Southern Europe,EU,Europe,
7061914,Liu’an,Liu’an,33.37039,113.27116,229,0,China,CN,156,30,Eastern Asia,AS,Asia,
8533133,Liupanshui,Liupanshui,26.59444,104.83333,460,251900,China,CN,156,30,Eastern Asia,AS,Asia,
1802875,Guankou,Guankou,28.15861,113.62709,302,1380000,China,CN,156,30,Eastern Asia,AS,Asia,
1553404,Liuzhou,Liuzhou,29.84061,118.18135,332,0,China,CN,156,30,Eastern Asia,AS,Asia,
2644210,Liverpool,Liverpool,53.41058,-2.97794,590,468945,United Kingdom,GB,826,154,Northern Europe,EU,Europe,
1802788,Licheng,Licheng,31.42813,119.48353,,72276,China,CN,156,30,Eastern Asia,AS,Asia,
3196359,Ljubljana,Ljubljana,46.05108,14.50513,,255115,Slovenia,SI,705,39,Southern Europe,EU,Europe,
935048,Lobamba,Lobamba,-26.46667,31.2,,4557,Swaziland,SZ,748,18,Southern Africa,AF,Africa,
2365267,Lomé,Lomé,6.13748,1.21227,,749700,Togo,TG,768,11,Western Africa,AF,Africa,
2643743,London,London,51.50853,-0.12574,,7556900,United Kingdom,GB,826,154,Northern Europe,EU,Europe,
3370867,Longwood,Longwood,-15.95,-5.68333,,701,Saint Helena,SH,654,11,Western Africa,AF,Africa,
2729907,Longyearbyen,Longyearbyen,78.22,15.65,,2060,Svalbard and Jan Mayen,SJ,744,154,Northern Europe,EU,Europe,
5368361,Los Angeles,Los Angeles,34.05223,-118.24368,,3792621,United States,US,840,21,North America,NA,North America,
4299276,Louisville,Louisville,38.25424,-85.75941,926,243639,United States,US,840,21,North America,NA,North America,
2240449,Luanda,Luanda,-8.83682,13.23432,,2776168,Angola,AO,24,17,Middle Africa,AF,Africa,
922704,Lubumbashi,Lubumbashi,-11.66089,27.47938,,1373770,Democratic Republic of the Congo,CD,180,17,Middle Africa,AF,Africa,
1264733,Lucknow,Lucknow,26.83928,80.92313,123,2472011,India,IN,356,34,Southern Asia,AS,Asia,
1264728,Ludhiana,Ludhiāna,30.90015,75.85229,269,1545368,India,IN,356,34,Southern Asia,AS,Asia,
1904024,Lüfeng,Lüfeng,29.85834,105.97306,366,0,China,CN,156,30,Eastern Asia,AS,Asia,
2136150,Luganville,Luganville,-15.51989,167.16235,,13397,Vanuatu,VU,548,54,Melanesia,OC,Oceania,
1801792,Luoyang,Luoyang,34.68361,112.45361,243,1390581,China,CN,156,30,Eastern Asia,AS,Asia,
909137,Lusaka,Lusaka,-15.40669,28.28713,,1267440,Zambia,ZM,894,14,Eastern Africa,AF,Africa,
2960316,Luxembourg City,Luxembourg,49.61167,6.13,,76684,Luxembourg,LU,442,155,Western Europe,EU,Europe,
1801639,Luzhou,Luzhou,31.28005,118.13148,323,0,China,CN,156,30,Eastern Asia,AS,Asia,
702550,Lviv,L'viv,49.83826,24.02324,669,717803,Ukraine,UA,804,151,Eastern Europe,EU,Europe,
3395981,Maceió,Maceió,-9.66583,-35.73528,499,954991,Brazil,BR,76,5,South America,SA,South America,
1801582,Macheng,Macheng,31.18013,115.02213,388,126366,China,CN,156,30,Eastern Asia,AS,Asia,
3117735,Madrid,Madrid,40.4165,-3.70256,,3255944,Spain,ES,724,39,Southern Europe,EU,Europe,
1264521,Madurai,Madurai,9.91735,78.11962,346,909908,India,IN,356,34,Southern Asia,AS,Asia,
4034307,Mahina,Mahina,-17.50648,-149.48899,,14369,French Polynesia,PF,258,61,Polynesia,OC,Oceania,
2113779,Majuro,Majuro,7.08971,171.38027,,25400,Marshall Islands,MH,584,57,Micronesia,OC,Oceania,
532096,Makhachkala,Makhachkala,42.97638,47.50236,932,497959,Russia,RU,643,151,Eastern Europe,EU,Europe,
104515,Mecca,Mecca,21.42667,39.82611,305,1323624,Saudi Arabia,SA,682,145,Western Asia,AS,Asia,
2309527,Santa Isabel,Malabo,3.75,8.78333,,155963,Equatorial Guinea,GQ,226,17,Middle Africa,AF,Africa,
2514256,Málaga,Málaga,36.72016,-4.42034,917,568305,Spain,ES,724,39,Southern Europe,EU,Europe,
1282027,Malé,Male,4.1748,73.50888,,103693,Maldives,MV,462,34,Southern Asia,AS,Asia,
2692969,Malmo,Malmö,55.60587,13.00073,845,261548,Sweden,SE,752,154,Northern Europe,EU,Europe,
921815,Mamoutzou,Mamoudzou,-12.78234,45.22878,,54831,Mayotte,YT,175,14,Eastern Africa,AF,Africa,
3617763,Managua,Managua,12.13282,-86.2504,,973087,Nicaragua,NI,558,13,Central America,SA,South America,
290340,Manama,Manama,26.21536,50.5832,,147074,Bahrain,BH,48,145,Western Asia,AS,Asia,
3663517,Manaus,Manaus,-3.10194,-60.025,213,1598210,Brazil,BR,76,5,South America,SA,South America,
2643123,Manchester,Manchester,53.48095,-2.23743,150,395515,United Kingdom,GB,826,154,Northern Europe,EU,Europe,
1311874,Mandalay,Mandalay,21.97473,96.08359,,1208099,Myanmar [Burma],MM,104,35,South-Eastern Asia,AS,Asia,
7268049,Mangilao Village,Mangilao Village,13.44761,144.80109,,15191,Guam,GU,316,57,Micronesia,OC,Oceania,
1701668,Manila,Manila,14.6042,120.9822,,10444527,Philippines,PH,608,35,South-Eastern Asia,AS,Asia,
934995,Manzini,Manzini,-26.49884,31.38004,,110537,Swaziland,SZ,748,18,Southern Africa,AF,Africa,
1040652,Maputo,Maputo,-25.96553,32.58322,,1191613,Mozambique,MZ,508,14,Eastern Africa,AF,Africa,
3633009,Maracaibo,Maracaibo,10.63167,-71.64056,,2225000,Venezuela,VE,862,5,South America,SA,South America,
3195506,Maribor,Maribor,46.55472,15.64667,,89056,Slovenia,SI,705,39,Southern Europe,EU,Europe,
3041732,Mariehamn,Mariehamn,60.09726,19.93481,,10682,Åland,AX,248,154,Northern Europe,EU,Europe,
3578851,Marigot,Marigot,18.06667,-63.08333,,5700,Saint Martin,MF,663,29,Caribbean,SA,South America,
2542997,Marrakesh,Marrakesh,31.63416,-7.99994,416,839296,Morocco,MA,504,15,Northern Africa,AF,Africa,
2995469,Marseille,Marseille,43.29695,5.38107,615,794811,France,FR,250,155,Western Europe,EU,Europe,
932505,Maseru,Maseru,-29.31667,27.48333,,118355,Lesotho,LS,426,18,Southern Africa,AF,Africa,
124665,Mashhad,Mashhad,36.31559,59.56796,,2307177,Iran,IR,364,34,Southern Asia,AS,Asia,
4034821,Mata-Utu,Mata-Utu,-13.28163,-176.17453,,1200,Wallis and Futuna,WF,876,61,Polynesia,OC,Oceania,
934985,Mbabane,Mbabane,-26.31667,31.13333,,76218,Swaziland,SZ,748,18,Southern Africa,AF,Africa,
1214520,Medan,Medan,3.58333,98.66667,146,1750971,Indonesia,ID,360,35,South-Eastern Asia,AS,Asia,
3674962,Medellín,Medellín,6.25184,-75.56359,,1999979,Colombia,CO,170,5,South America,SA,South America,
1263214,Meerut,Meerut,28.97155,77.71934,364,1223184,India,IN,356,34,Southern Asia,AS,Asia,
2158177,Melbourne,Melbourne,-37.814,144.96332,,4246375,Australia,AU,36,53,Australia and New Zealand,OC,Oceania,
7303944,Melekeok,Melekeok,7.50043,134.62355,,0,Palau,PW,585,57,Micronesia,OC,Oceania,
4641239,Memphis,Memphis,35.14953,-90.04898,755,646889,United States,US,840,21,North America,NA,North America,
3530597,Mexico City,Mexico City,19.42847,-99.12766,,12294193,Mexico,MX,484,13,Central America,SA,South America,
4164138,Miami,Miami,25.77427,-80.19366,52,399457,United States,US,840,21,North America,NA,North America,
1800627,Mianyang,Mianyang,31.45934,104.75424,369,264136,China,CN,156,30,Eastern Asia,AS,Asia,
3173435,Milan,Milano,45.46427,9.18951,,1236837,Italy,IT,380,39,Southern Europe,EU,Europe,
5263045,Milwaukee,Milwaukee,43.0389,-87.90647,888,594833,United States,US,840,21,North America,NA,North America,
3374462,Mindelo,Mindelo,16.89014,-24.98042,,70611,Cape Verde,CV,132,11,Western Africa,AF,Africa,
5037649,Minneapolis,Minneapolis,44.97997,-93.26384,122,382578,United States,US,840,21,North America,NA,North America,
625144,Minsk,Minsk,53.9,27.56667,,1742124,Belarus,BY,112,151,Eastern Europe,EU,Europe,
3424941,Miquelon,Miquelon,47.0975,-56.38139,,1141,Saint Pierre and Miquelon,PM,612,61,Polynesia,OC,Oceania,
53654,Mogadishu,Mogadishu,2.03711,45.34375,,2587183,Somalia,SO,706,14,Eastern Africa,AF,Africa,
186301,Mombasa,Mombasa,-4.05466,39.66359,,799668,Kenya,KE,404,14,Eastern Africa,AF,Africa,
2993458,Monaco,Monaco,43.73333,7.41667,,32965,Monaco,MC,492,155,Western Europe,EU,Europe,
2274895,Monrovia,Monrovia,6.30054,-10.7969,,939524,Liberia,LR,430,11,Western Africa,AF,Africa,
2992741,Monte Carlo,Monte-Carlo,43.73976,7.42732,,16012,Monaco,MC,492,155,Western Europe,EU,Europe,
3995465,Monterrey,Monterrey,25.67506,-100.31846,81,1122874,Mexico,MX,484,13,Central America,SA,South America,
3441575,Montevideo,Montevideo,-34.90328,-56.18816,,1270737,Uruguay,UY,858,5,South America,SA,South America,
6077243,Montreal,Montréal,45.50884,-73.58781,92,3268513,Canada,CA,124,21,North America,NA,North America,
2453348,Mopti,Mopti,14.4843,-4.18296,246,108456,Mali,ML,466,11,Western Africa,AF,Africa,
921772,Moroni,Moroni,-11.70216,43.25506,,42872,Comoros,KM,174,14,Eastern Africa,AF,Africa,
524901,Moscow,Moscow,55.75222,37.61556,,10381222,Russia,RU,643,151,Eastern Europe,EU,Europe,
2562704,Mosta,Mosta,35.90917,14.42556,,17789,Malta,MT,470,39,Southern Europe,EU,Europe,
99072,Mosul,Mosul,36.335,43.11889,769,1739800,Iraq,IQ,368,145,Western Asia,AS,Asia,
2427455,Moundou,Moundou,8.56667,16.08333,,135167,Chad,TD,148,17,Middle Africa,AF,Africa,
6759129,Tanga,Tanga,5.107,120.2773,,0,Philippines,PH,608,35,South-Eastern Asia,AS,Asia,
2035715,Mudanjiang,Mudanjiang,44.58333,129.6,447,665915,China,CN,156,30,Eastern Asia,AS,Asia,
1169825,Multan,Multān,30.19556,71.47528,345,1437230,Pakistan,PK,586,34,Southern Asia,AS,Asia,
1275339,Mumbai,Mumbai,19.07283,72.88261,,12691836,India,IN,356,34,Southern Asia,AS,Asia,
2867714,Munich,Munich,48.13743,11.57549,347,1260391,Germany,DE,276,155,Western Europe,EU,Europe,
287286,Muscat,Muscat,23.61387,58.5922,,797000,Oman,OM,512,145,Western Asia,AS,Asia,
921753,Moutsamoudou,Moutsamoudou,-12.16672,44.39944,,23594,Comoros,KM,174,14,Eastern Africa,AF,Africa,
431748,Muyinga,Muyinga,-2.8451,30.3414,,71076,Burundi,BI,108,14,Eastern Africa,AF,Africa,
152224,Mwanza,Mwanza,-2.51667,32.9,,436801,Tanzania,TZ,834,14,Eastern Africa,AF,Africa,
2427123,N'Djamena,N'Djamena,12.10672,15.0444,,721081,Chad,TD,148,17,Middle Africa,AF,Africa,
1856057,Nagoya-shi,Nagoya-shi,35.18147,136.90641,24,2191279,Japan,JP,392,30,Eastern Asia,AS,Asia,
1262180,Nagpur,Nagpur,21.14631,79.08491,138,2228018,India,IN,356,34,Southern Asia,AS,Asia,
184745,Nairobi,Nairobi,-1.28333,36.81667,,2750547,Kenya,KE,404,14,Eastern Africa,AF,Africa,
1608529,Nakhon Ratchasima,Nakhon Ratchasima,14.97066,102.10196,972,208781,Thailand,TH,764,35,South-Eastern Asia,AS,Asia,
184622,Nakuru,Nakuru,-0.28333,36.06667,226,259903,Kenya,KE,404,14,Eastern Africa,AF,Africa,
1513157,Namangan,Namangan,40.9983,71.67257,,432456,Uzbekistan,UZ,860,143,Central Asia,AS,Asia,
1952513,Ban Nampho,Ban Nampho,19.50278,102.38833,680,0,Laos,LA,418,35,South-Eastern Asia,AS,Asia,
1033356,Nampula,Nampula,-15.11646,39.2666,,388526,Mozambique,MZ,508,14,Eastern Africa,AF,Africa,
1785294,Anyang,Anyang,36.09944,114.32889,273,781129,China,CN,156,30,Eastern Asia,AS,Asia,
1800163,Nanchang,Nanchang,28.68333,115.88333,143,1871351,China,CN,156,30,Eastern Asia,AS,Asia,
1800146,Nanchong,Nanchong,30.79508,106.08474,203,7150000,China,CN,156,30,Eastern Asia,AS,Asia,
7396604,Nanhai,Nanhai,39.37515,121.67488,186,0,China,CN,156,30,Eastern Asia,AS,Asia,
1799962,Nanjing,Nanjing,32.06167,118.77778,71,3087010,China,CN,156,30,Eastern Asia,AS,Asia,
1799869,Nanning,Nanning,22.81667,108.31667,204,803788,China,CN,156,30,Eastern Asia,AS,Asia,
1799722,Nantong,Nantong,32.03028,120.87472,,666251,China,CN,156,30,Eastern Asia,AS,Asia,
1799629,Nanyang,Nanyang,32.99472,112.53278,225,251532,China,CN,156,30,Eastern Asia,AS,Asia,
3172394,Naples,Napoli,40.83333,14.25,104,959470,Italy,IT,380,39,Southern Europe,EU,Europe,
1261731,Nashik,Nashik,19.99727,73.79096,377,1289497,India,IN,356,34,Southern Asia,AS,Asia,
4644585,Nashville,Nashville,36.16589,-86.78444,941,530852,United States,US,840,21,North America,NA,North America,
2201326,Nasinu,Nasinu,-17.71667,178.83333,,0,Fiji,FJ,242,54,Melanesia,OC,Oceania,
3571824,Nassau,Nassau,25.05823,-77.34306,,227940,Bahamas,BS,44,29,Caribbean,SA,South America,
6611854,Naypyidaw,Nay Pyi Taw,19.745,96.12972,,925000,Myanmar [Burma],MM,104,35,South-Eastern Asia,AS,Asia,
1799491,Neijiang,Neijiang,29.58354,105.06216,271,546854,China,CN,156,30,Eastern Asia,AS,Asia,
1273294,Delhi,Delhi,28.65381,77.22897,,10927986,India,IN,356,34,Southern Asia,AS,Asia,
5128581,New York,New York City,40.71427,-74.00597,,8175133,United States,US,840,21,North America,NA,North America,
8063361,Ngerulmud,Ngerulmud,7.50077,134.6238,,0,Palau,PW,585,57,Micronesia,OC,Oceania,
2440485,Niamey,Niamey,13.51366,2.1098,,774235,Niger,NE,562,11,Western Africa,AF,Africa,
146268,Nicosia,Nicosia,35.16667,33.36667,,200452,Cyprus,CY,196,145,Western Asia,AS,Asia,
3194494,Nikšić,Nikšić,42.7731,18.94446,,58212,Montenegro,ME,499,39,Southern Europe,EU,Europe,
1799397,Ningbo,Ningbo,29.87819,121.54945,228,719867,China,CN,156,30,Eastern Asia,AS,Asia,
520555,Nizhny Novgorod,Nizhniy Novgorod,56.32867,44.00205,310,1284164,Russia,RU,643,151,Eastern Europe,EU,Europe,
1608133,Mueang Nonthaburi,Mueang Nonthaburi,13.86075,100.51477,706,291555,Thailand,TH,764,35,South-Eastern Asia,AS,Asia,
3573418,North Side,North Side,18.21667,-63.05,,0,Anguilla,AI,660,29,Caribbean,SA,South America,
2641170,Nottingham,Nottingham,52.9536,-1.15047,767,246654,United Kingdom,GB,826,154,Northern Europe,EU,Europe,
2377450,Nouakchott,Nouakchott,18.08581,-15.9785,,661400,Mauritania,MR,478,11,Western Africa,AF,Africa,
2139521,Noumea,Nouméa,-22.27631,166.4572,,93060,New Caledonia,NC,540,54,Melanesia,OC,Oceania,
3194360,Novi Sad,Novi Sad,45.25167,19.83694,,215400,Serbia,RS,688,39,Southern Europe,EU,Europe,
1496990,Novokuznetsk,Novokuznetsk,53.7557,87.1099,916,539616,Russia,RU,643,151,Eastern Europe,EU,Europe,
1496747,Novosibirsk,Novosibirsk,55.0415,82.9346,270,1419007,Russia,RU,643,151,Eastern Europe,EU,Europe,
4032402,Nuku'alofa,Nuku‘alofa,-21.13938,-175.2018,,22400,Tonga,TO,776,61,Polynesia,OC,Oceania,
3421319,Nuuk,Nuuk,64.18347,-51.72157,,14798,Greenland,GL,304,21,North America,NA,North America,
698740,Odessa,Odessa,46.47747,30.73262,465,1001558,Ukraine,UA,804,151,Eastern Europe,EU,Europe,
4544349,Oklahoma City,Oklahoma City,35.46756,-97.51643,971,579999,United States,US,840,21,North America,NA,North America,
365137,Omdurman,Omdurman,15.64453,32.47773,315,1200000,Sudan,SD,729,15,Northern Africa,AF,Africa,
1496153,Omsk,Omsk,54.99244,73.36859,385,1129281,Russia,RU,643,151,Eastern Europe,EU,Europe,
3042201,Onchan,Onchan,54.17329,-4.45324,,0,Isle of Man,IM,833,154,Northern Europe,EU,Europe,
2485926,Oran,Oran,35.69111,-0.64167,,645984,Algeria,DZ,12,15,Northern Africa,AF,Africa,
3577154,Oranjestad,Oranjestad,12.52398,-70.02703,,29998,Aruba,AW,533,29,Caribbean,SA,South America,
1853909,Osaka,Ōsaka-shi,34.69374,135.50218,10,2592413,Japan,JP,392,30,Eastern Asia,AS,Asia,
1527534,Osh,Osh,40.51506,72.80826,,200000,Kyrgyzstan,KG,417,143,Central Asia,AS,Asia,
3143244,Oslo,Oslo,59.91273,10.74609,,580000,Norway,NO,578,154,Northern Europe,EU,Europe,
6094817,Ottawa,Ottawa,45.41117,-75.69812,,812129,Canada,CA,124,21,North America,NA,North America,
2357048,Ouagadougou,Ouagadougou,12.36566,-1.53388,,1086505,Burkina Faso,BF,854,11,Western Africa,AF,Africa,
5881576,Pago Pago,Pago Pago,-14.27806,-170.7025,,11500,American Samoa,AS,16,61,Polynesia,OC,Oceania,
1654379,Pakxe,Pakxé,15.12022,105.79898,,88332,Laos,LA,418,35,South-Eastern Asia,AS,Asia,
1633070,Palembang,Palembang,-2.91673,104.7458,309,1441500,Indonesia,ID,360,35,South-Eastern Asia,AS,Asia,
2081986,Palikir,Palikir - National Government Center,6.92477,158.16109,,0,Micronesia,FM,583,57,Micronesia,OC,Oceania,
3703443,Panama City,Panamá,8.9936,-79.51973,,408168,Panama,PA,591,13,Central America,SA,South America,
4033936,Papeete,Papeete,-17.53733,-149.5665,,26357,French Polynesia,PF,258,61,Polynesia,OC,Oceania,
3383330,Paramaribo,Paramaribo,5.86638,-55.16682,,223757,Suriname,SR,740,5,South America,SA,South America,
2988507,Paris,Paris,48.85341,2.3488,,2138551,France,FR,250,155,Western Europe,EU,Europe,
1260086,Patna,Patna,25.60222,85.11936,167,1599920,India,IN,356,34,Southern Asia,AS,Asia,
7643243,Pengzhou,Pengzhou,29.28591,115.73962,,0,China,CN,156,30,Eastern Asia,AS,Asia,
511196,Molotov,Perm,58.01046,56.25017,464,982419,Russia,RU,643,151,Eastern Europe,EU,Europe,
2063523,Perth,Perth,-31.95224,115.8614,247,1896548,Australia,AU,36,53,Australia and New Zealand,OC,Oceania,
1168197,Peshāwar,Peshāwar,34.008,71.57849,468,1218773,Pakistan,PK,586,34,Southern Asia,AS,Asia,
4560349,Philadelphia,Philadelphia,39.95234,-75.16379,50,1526006,United States,US,840,21,North America,NA,North America,
3513392,Philipsburg,Philipsburg,18.026,-63.04582,,1400,Sint Maarten,SX,534,29,Caribbean,SA,South America,
1821306,Phnom Penh,Phnom Penh,11.56245,104.91601,,1573544,Cambodia,KH,116,35,South-Eastern Asia,AS,Asia,
5308655,Phoenix,Phoenix,33.44838,-112.07404,82,1445632,United States,US,840,21,North America,NA,North America,
1252484,Phuntsholing,Phuntsholing,26.85164,89.38837,,17043,Bhutan,BT,64,34,Southern Asia,AS,Asia,
7626690,Pimpri-Chinchwad,Pimpri-Chinchwad,18.61867,73.80375,454,0,India,IN,356,34,Southern Asia,AS,Asia,
1798821,Pingdu,Pingdu,36.78444,119.94639,298,91077,China,CN,156,30,Eastern Asia,AS,Asia,
1798654,Pingxiang,Pingxiang,27.61672,113.85353,,372123,China,CN,156,30,Eastern Asia,AS,Asia,
1785716,Pizhou,Pizhou,34.31139,117.95028,233,82641,China,CN,156,30,Eastern Asia,AS,Asia,
728193,Plovdiv,Plovdiv,42.15,24.75,,340494,Bulgaria,BG,100,151,Eastern Europe,EU,Europe,
3578069,Plymouth,Plymouth,16.70555,-62.21292,,0,Montserrat,MS,500,29,Caribbean,SA,South America,
3193044,Podgorica,Podgorica,42.44111,19.26361,,136473,Montenegro,ME,499,39,Southern Europe,EU,Europe,
2255414,Pointe-Noire,Pointe-Noire,-4.77609,11.86352,,659084,Republic of the Congo,CG,178,17,Middle Africa,AF,Africa,
1282898,Pokhara,Pokhara,28.26689,83.96851,,200000,Nepal,NP,524,34,Southern Asia,AS,Asia,
964420,Port Elizabeth,Port Elizabeth,-33.91799,25.57007,645,967677,South Africa,ZA,710,18,Southern Africa,AF,Africa,
934154,Port Louis,Port Louis,-20.16194,57.49889,,155226,Mauritius,MU,480,14,Eastern Africa,AF,Africa,
2088122,Port Moresby,Port Moresby,-9.44314,147.17972,,283733,Papua New Guinea,PG,598,54,Melanesia,OC,Oceania,
3573890,Port of Spain,Port-of-Spain,10.66668,-61.51889,,49031,Trinidad and Tobago,TT,780,29,Caribbean,SA,South America,
2135171,Port Vila,Port-Vila,-17.73381,168.32188,,35901,Vanuatu,VU,548,54,Melanesia,OC,Oceania,
3718426,Port-au-Prince,Port-au-Prince,18.53917,-72.335,,1234742,Haiti,HT,332,29,Caribbean,SA,South America,
2396518,Port-Gentil,Port-Gentil,-0.71933,8.78151,,109163,Gabon,GA,266,17,Middle Africa,AF,Africa,
5746545,Portland,Portland,45.52345,-122.67621,967,583776,United States,US,840,21,North America,NA,North America,
2735943,Porto,Porto,41.14961,-8.61099,,249633,Portugal,PT,620,39,Southern Europe,EU,Europe,
3452925,Porto Alegre,Porto Alegre,-30.03306,-51.23,86,1372741,Brazil,BR,76,5,South America,SA,South America,
2392087,Porto-Novo,Porto-Novo,6.49646,2.60359,,234168,Benin,BJ,204,11,Western Africa,AF,Africa,
3067696,Prague,Prague,50.08804,14.42076,,1165581,Czechia,CZ,203,151,Eastern Europe,EU,Europe,
3374333,Praia,Praia,14.93152,-23.51254,,113364,Cape Verde,CV,132,11,Western Africa,AF,Africa,
2639912,Preston,Preston,53.76667,-2.71667,166,190687,United Kingdom,GB,826,154,Northern Europe,EU,Europe,
964137,Pretoria,Pretoria,-25.74486,28.18783,737,1619438,South Africa,ZA,710,18,Southern Africa,AF,Africa,
3513522,Lower Prince’s Quarter,Lower Prince’s Quarter,18.04987,-63.03788,,0,Sint Maarten,SX,534,29,Caribbean,SA,South America,
786714,Prishtina,Pristina,42.67272,21.16688,,550000,Kosovo,XK,,,,,,
786712,Prizren,Prizren,42.21389,20.73972,,171464,Kosovo,XK,,,,,,
3521081,Puebla,Puebla,19.04334,-98.20193,196,1590256,Mexico,MX,484,13,Central America,SA,South America,
3875024,Puente Alto,Puente Alto,-33.61169,-70.57577,819,510417,Chile,CL,152,5,South America,SA,South America,
1798490,Pulandian,Pulandian,39.39528,121.96694,,104277,China,CN,156,30,Eastern Asia,AS,Asia,
1259229,Pune,Pune,18.51957,73.85535,62,2935744,India,IN,356,34,Southern Asia,AS,Asia,
1802940,Puning,Puning,23.31072,116.16869,197,118023,China,CN,156,30,Eastern Asia,AS,Asia,
6697380,Putrajaya,Putrajaya,2.93527,101.69112,,50000,Malaysia,MY,458,35,South-Eastern Asia,AS,Asia,
1871859,Pyongyang,Pyongyang,39.03385,125.75432,,3222000,North Korea,KP,408,30,Eastern Asia,AS,Asia,
1786067,Qianjiang,Qianjiang,30.421,112.8919,463,179079,China,CN,156,30,Eastern Asia,AS,Asia,
1913681,Qidong,Qidong,22.62889,111.23,421,0,China,CN,156,30,Eastern Asia,AS,Asia,
1797929,Qingdao,Qingdao,36.06605,120.36939,95,1642245,China,CN,156,30,Eastern Asia,AS,Asia,
1797551,Qinzhou,Qinzhou,21.97296,108.62612,435,100996,China,CN,156,30,Eastern Asia,AS,Asia,
2035265,Qiqihar,Qiqihar,47.34088,123.96045,232,882364,China,CN,156,30,Eastern Asia,AS,Asia,
119208,Qom,Qom,34.6401,50.8764,466,900000,Iran,IR,364,34,Southern Asia,AS,Asia,
1797353,Chinchu,Quanzhou,24.91389,118.58583,349,184143,China,CN,156,30,Eastern Asia,AS,Asia,
3590979,Quetzaltenango,Quetzaltenango,14.83472,-91.51806,,132230,Guatemala,GT,320,13,Central America,SA,South America,
1692192,Quezon City,Quezon City,14.6488,121.0509,185,2761720,Philippines,PH,608,35,South-Eastern Asia,AS,Asia,
3652462,Quito,Quito,-0.22985,-78.52495,,1399814,Ecuador,EC,218,5,South America,SA,South America,
2538475,Rabat,Rabat,34.01325,-6.83255,,1655753,Morocco,MA,504,15,Northern Africa,AF,Africa,
1258847,Rajkot,Rājkot,22.29161,70.79322,456,1177362,India,IN,356,34,Southern Asia,AS,Asia,
3578544,Rambaud,Rambaud,18.08066,-63.06674,,0,Saint Martin,MF,663,29,Caribbean,SA,South America,
1166993,Rawalpindi,Rāwalpindi,33.6007,73.0679,131,1743101,Pakistan,PK,586,34,Southern Asia,AS,Asia,
3390760,Recife,Recife,-8.05389,-34.88111,84,1478098,Brazil,BR,76,5,South America,SA,South America,
1797181,Renqiu,Renqiu,38.69889,116.09361,,98569,China,CN,156,30,Eastern Asia,AS,Asia,
3413829,Reykjavik,Reykjavík,64.13548,-21.89541,,118918,Iceland,IS,352,154,Northern Europe,EU,Europe,
385038,Ar Rifā‘,Ar Rifā‘,26.13,50.555,,79550,Bahrain,BH,48,145,Western Asia,AS,Asia,
456172,Riga,Riga,56.946,24.10589,,742572,Latvia,LV,428,154,Northern Europe,EU,Europe,
3451190,Rio de Janeiro,Rio de Janeiro,-22.90278,-43.2075,,6023699,Brazil,BR,76,5,South America,SA,South America,
7304318,Rita,Rita,7.12442,171.35739,,0,Marshall Islands,MH,584,57,Micronesia,OC,Oceania,
108410,Riyadh,Riyadh,24.68773,46.72185,,4205961,Saudi Arabia,SA,682,145,Western Asia,AS,Asia,
1797132,Rizhao,Rizhao,35.4275,119.45528,380,246387,China,CN,156,30,Eastern Asia,AS,Asia,
3577430,Road Town,Road Town,18.41667,-64.61667,,8449,British Virgin Islands,VG,92,29,Caribbean,SA,South America,
3169070,Rome,Rome,41.89474,12.4839,,2318895,Italy,IT,380,39,Southern Europe,EU,Europe,
1797121,Jieyang,Jieyang,23.5418,116.36581,,1001985,China,CN,156,30,Eastern Asia,AS,Asia,
3838583,Rosario,Rosario,-32.94682,-60.63932,394,1173533,Argentina,AR,32,5,South America,SA,South America,
3575635,Roseau,Roseau,15.30174,-61.38808,,16571,Dominica,DM,212,29,Caribbean,SA,South America,
501175,Rostov-on-Don,Rostov-na-Donu,47.23135,39.72328,425,1074482,Russia,RU,643,151,Eastern Europe,EU,Europe,
2747891,Rotterdam,Rotterdam,51.9225,4.47917,,598199,Netherlands,NL,528,155,Western Europe,EU,Europe,
1797069,Rucheng,Rucheng,32.38833,120.55528,281,0,China,CN,156,30,Eastern Asia,AS,Asia,
1797063,Rui’an,Rui’an,27.77605,120.65859,341,0,China,CN,156,30,Eastern Asia,AS,Asia,
3353383,Rundu,Rundu,-17.93333,19.76667,,58172,Namibia,NA,516,18,Southern Africa,AF,Africa,
1803359,Ruzhou,Ruzhou,34.16167,112.82972,498,0,China,CN,156,30,Eastern Asia,AS,Asia,
2537881,Safi,Safi,32.29939,-9.23718,510,288163,Morocco,MA,504,15,Northern Africa,AF,Africa,
3042091,Saint Helier,Saint Helier,49.18804,-2.10491,,28000,Jersey,JE,832,154,Northern Europe,EU,Europe,
3042287,St Peter Port,Saint Peter Port,49.45981,-2.53527,,16488,Guernsey,GG,831,154,Northern Europe,EU,Europe,
3578160,Gerald's,Gerald's,16.79575,-62.19356,,314,Montserrat,MS,500,29,Caribbean,SA,South America,
498817,Saint-Petersburg,Saint Petersburg,59.93863,30.31413,,5028000,Russia,RU,643,151,Eastern Europe,EU,Europe,
6424194,St. Saviour,Saint Saviour,49.45694,-2.63583,,0,Guernsey,GG,831,154,Northern Europe,EU,Europe,
3380387,Saint-Laurent-du-Maroni,Saint-Laurent-du-Maroni,5.5,-54.03333,,24287,French Guiana,GF,254,5,South America,SA,South America,
3424934,Saint-Pierre,Saint-Pierre,46.77914,-56.1773,,6200,Saint Pierre and Miquelon,PM,612,61,Polynesia,OC,Oceania,
7828758,Saipan,Saipan,15.21233,145.7545,,48220,Northern Mariana Islands,MP,,,,,,
6940394,Saitama,Saitama,35.90807,139.65657,360,1193350,Japan,JP,392,30,Eastern Asia,AS,Asia,
286621,Salalah,Şalālah,17.01505,54.09237,,163140,Oman,OM,512,145,Western Asia,AS,Asia,
3440714,Salto,Salto,-31.38333,-57.96667,,99823,Uruguay,UY,858,5,South America,SA,South America,
3450554,Salvador,Salvador,-12.97111,-38.51083,106,2711840,Brazil,BR,76,5,South America,SA,South America,
499099,Samara,Samara,53.20006,50.15,384,1134730,Russia,RU,643,151,Eastern Europe,EU,Europe,
1606590,Samut Prakan,Samut Prakan,13.59934,100.59675,677,388920,Thailand,TH,764,35,South-Eastern Asia,AS,Asia,
4726206,San Antonio,San Antonio,29.42412,-98.49363,321,1327407,United States,US,840,21,North America,NA,North America,
7267947,San Antonio Village,San Antonio Village,15.13299,145.69716,,0,Northern Mariana Islands,MP,,,,,,
5391811,San Diego,San Diego,32.71533,-117.15726,113,1307402,United States,US,840,21,North America,NA,North America,
3573738,San Fernando,San Fernando,10.28333,-61.46667,,55419,Trinidad and Tobago,TT,780,29,Caribbean,SA,South America,
5391959,San Francisco,San Francisco,37.77493,-122.41942,49,805235,United States,US,840,21,North America,NA,North America,
3581194,San Ignacio,San Ignacio,17.1576,-89.07964,,16812,Belize,BZ,84,13,Central America,SA,South America,
5392171,San Jose,San Jose,37.33939,-121.89496,506,945942,United States,US,840,21,North America,NA,North America,
3621849,San José,San José,9.93333,-84.08333,,335007,Costa Rica,CR,188,13,Central America,SA,South America,
4568127,San Juan,San Juan,18.46633,-66.10572,,418140,Puerto Rico,PR,630,29,Caribbean,SA,South America,
3985606,San Luis Potosí,San Luis Potosí,22.14993,-100.9828,490,677704,Mexico,MX,484,13,Central America,SA,South America,
3168070,San Marino,San Marino,43.93667,12.44639,,4500,San Marino,SM,674,39,Southern Europe,EU,Europe,
3601782,San Pedro Sula,San Pedro Sula,15.50417,-88.025,,489466,Honduras,HN,340,13,Central America,SA,South America,
3583361,San Salvador,San Salvador,13.68935,-89.18718,,525990,El Salvador,SV,222,13,Central America,SA,South America,
71137,Sanaa,Sanaa,15.35472,44.20667,,1937451,Yemen,YE,887,145,Western Asia,AS,Asia,
3583334,Santa Ana,Santa Ana,13.99417,-89.55972,,176661,El Salvador,SV,222,13,Central America,SA,South America,
3904906,Santa Cruz de la Sierra,Santa Cruz de la Sierra,-17.78629,-63.18117,267,1364389,Bolivia,BO,68,5,South America,SA,South America,
3871336,Santiago,Santiago,-33.45694,-70.64827,,4837295,Chile,CL,152,5,South America,SA,South America,
3536729,Santiago de Cuba,Santiago de Cuba,20.02472,-75.82194,,555865,Cuba,CU,192,29,Caribbean,SA,South America,
3492914,Santiago de los Caballeros,Santiago de los Caballeros,19.4517,-70.69703,,1200000,Dominican Republic,DO,214,29,Caribbean,SA,South America,
3492908,Santo Domingo,Santo Domingo,18.50012,-69.98857,,2201941,Dominican Republic,DO,214,29,Caribbean,SA,South America,
3388714,São Gonçalo do Amarante,São Gonçalo do Amarante,-3.60722,-38.96833,474,23583,Brazil,BR,76,5,South America,SA,South America,
3388368,São Luís,São Luís,-2.52972,-44.30278,457,917237,Brazil,BR,76,5,South America,SA,South America,
3448439,São Paulo,São Paulo,-23.5475,-46.63611,7,10021295,Brazil,BR,76,5,South America,SA,South America,
2410763,São Tomé,São Tomé,0.33654,6.72732,,53300,São Tomé and Príncipe,ST,678,17,Middle Africa,AF,Africa,
2128295,Sapporo,Sapporo,43.06417,141.34694,163,1883027,Japan,JP,392,30,Eastern Asia,AS,Asia,
3191281,Sarajevo,Sarajevo,43.84864,18.35644,,696731,Bosnia and Herzegovina,BA,70,39,Southern Europe,EU,Europe,
498677,Saratov,Saratov,51.54056,46.00861,568,863725,Russia,RU,643,151,Eastern Europe,EU,Europe,
3042041,Schaan,Schaan,47.16498,9.50867,,5748,Liechtenstein,LI,438,155,Western Europe,EU,Europe,
5809844,Seattle,Seattle,47.60621,-122.33207,114,608660,United States,US,840,21,North America,NA,North America,
2451478,Ségou,Ségou,13.4317,-6.2157,215,92552,Mali,ML,466,11,Western Africa,AF,Africa,
1627896,Semarang,Semarang,-6.9932,110.4203,268,1288084,Indonesia,ID,360,35,South-Eastern Asia,AS,Asia,
2111149,Sendai,Sendai-shi,38.26889,140.87194,437,1063103,Japan,JP,392,30,Eastern Asia,AS,Asia,
1897000,Seongnam-si,Seongnam-si,37.43861,127.13778,503,1031935,South Korea,KR,410,30,Eastern Asia,AS,Asia,
1835848,Seoul,Seoul,37.566,126.9784,,10349312,South Korea,KR,410,30,Eastern Asia,AS,Asia,
2411989,Serrekunda,Sere Kunda,13.43833,-16.67806,,0,Gambia,GM,270,11,Western Africa,AF,Africa,
2510911,Seville,Sevilla,37.38283,-5.97317,720,703206,Spain,ES,724,39,Southern Europe,EU,Europe,
2467454,Sfax,Sfax,34.74056,10.76028,,277278,Tunisia,TN,788,15,Northern Africa,AF,Africa,
1796236,Shanghai,Shanghai,31.22222,121.45806,,14608512,China,CN,156,30,Eastern Asia,AS,Asia,
1783934,Shangqiu,Shangqiu,34.45,115.65,259,181218,China,CN,156,30,Eastern Asia,AS,Asia,
1795940,Shantou,Shantou,23.36814,116.71479,316,1333973,China,CN,156,30,Eastern Asia,AS,Asia,
2638077,Sheffield,Sheffield,53.38297,-1.4659,801,447047,United Kingdom,GB,826,154,Northern Europe,EU,Europe,
2034937,Shenyang,Shenyang,41.79222,123.43278,60,3512192,China,CN,156,30,Eastern Asia,AS,Asia,
1795565,Shenzhen,Shenzhen,22.54554,114.0683,19,3000000,China,CN,156,30,Eastern Asia,AS,Asia,
1795270,Shijiazhuang,Shijiazhuang,38.04139,114.47861,149,1992474,China,CN,156,30,Eastern Asia,AS,Asia,
115019,Shiraz,Shiraz,29.61031,52.53114,344,1249942,Iran,IR,364,34,Southern Asia,AS,Asia,
1794794,Shouguang,Shouguang,36.88,118.7375,411,79212,China,CN,156,30,Eastern Asia,AS,Asia,
2034834,Shuangcheng,Shuangcheng,45.35,126.28333,,130710,China,CN,156,30,Eastern Asia,AS,Asia,
1814082,Shunde,Daliang,22.84067,113.2503,212,210411,China,CN,156,30,Eastern Asia,AS,Asia,
147105,Shusha,Shushi,39.76006,46.74989,,18662,Azerbaijan,AZ,31,145,Western Asia,AS,Asia,
2451185,Sikasso,Sikasso,11.31755,-5.66654,,144786,Mali,ML,466,11,Western Africa,AF,Africa,
1880252,Singapore,Singapore,1.28967,103.85007,,3547809,Singapore,SG,702,35,South-Eastern Asia,AS,Asia,
3513221,Sint Michiel Liber,Sint Michiel Liber,12.15,-68.98333,,5138,Curacao,CW,531,29,Caribbean,SA,South America,
3577089,Sint Nicolaas,Sint Nicolaas,12.43333,-69.9,,0,Aruba,AW,533,29,Caribbean,SA,South America,
3419842,Sisimiut,Sisimiut,66.93946,-53.6735,,5227,Greenland,GL,304,21,North America,NA,North America,
785842,Skopje,Skopje,41.99646,21.43141,,474889,Macedonia,MK,807,39,Southern Europe,EU,Europe,
727011,Sofia,Sofia,42.69751,23.32415,,1152556,Bulgaria,BG,100,151,Eastern Europe,EU,Europe,
2364104,Sokodé,Sokodé,8.98333,1.13333,,117811,Togo,TG,768,11,Western Africa,AF,Africa,
953781,Soweto,Soweto,-26.26781,27.85849,512,1695047,South Africa,ZA,710,18,Southern Africa,AF,Africa,
3488465,Spanish Town,Spanish Town,17.99107,-76.95742,,145018,Jamaica,JM,388,29,Caribbean,SA,South America,
3373505,Speightstown,Speightstown,13.25,-59.65,,3634,Barbados,BB,52,29,Caribbean,SA,South America,
3190261,Split,Split,43.50891,16.43915,,176314,Croatia,HR,191,39,Southern Europe,EU,Europe,
1238992,New Capital Territory,Sri Jayewardenepura Kotte,6.88297,79.90708,,115826,Sri Lanka,LK,144,34,Southern Asia,AS,Asia,
1255634,Srinagar,Srinagar,34.08842,74.80298,475,975857,India,IN,356,34,Southern Asia,AS,Asia,
3579925,St. George's,Saint George's,12.05644,-61.74849,,7500,Grenada,GD,308,29,Caribbean,SA,South America,
3042091,Saint Helier,Saint Helier,49.18804,-2.10491,,28000,Jersey,JE,832,154,Northern Europe,EU,Europe,
3578433,Saint-Jean,Saint-Jean,17.89871,-62.83699,,0,Saint Barthélemy,BL,652,29,Caribbean,SA,South America,
3576022,St. John's,Saint John’s,17.11717,-61.84573,,24226,Antigua and Barbuda,AG,28,29,Caribbean,SA,South America,
4407066,St Louis,St. Louis,38.62727,-90.19789,159,319294,United States,US,840,21,North America,NA,North America,
3042287,St Peter Port,Saint Peter Port,49.45981,-2.53527,,16488,Guernsey,GG,831,154,Northern Europe,EU,Europe,
3424934,Saint-Pierre,Saint-Pierre,46.77914,-56.1773,,6200,Saint Pierre and Miquelon,PM,612,61,Polynesia,OC,Oceania,
3426691,Stanley,Stanley,-51.7,-57.85,,2213,Falkland Islands,FK,238,5,South America,SA,South America,
146970,Stepanakert,Xankǝndi,39.8177,46.7528,,53100,Azerbaijan,AZ,31,145,Western Asia,AS,Asia,
2673730,Stockholm,Stockholm,59.33258,18.0649,,1253309,Sweden,SE,752,154,Northern Europe,EU,Europe,
3903987,Sucre,Sucre,-19.03332,-65.26274,,224838,Bolivia,BO,68,5,South America,SA,South America,
1793900,Suining,Suining,30.50802,105.57332,285,124924,China,CN,156,30,Eastern Asia,AS,Asia,
1793879,Suizhou,Suizhou,31.71111,113.36306,224,323945,China,CN,156,30,Eastern Asia,AS,Asia,
611847,Sukhumi,Sokhumi,43.00697,40.9893,,81546,Georgia,GE,268,145,Western Asia,AS,Asia,
1625822,Surabaya,Surabaya,-7.24917,112.75083,,2374658,Indonesia,ID,360,35,South-Eastern Asia,AS,Asia,
1255364,Surat,Sūrat,21.19594,72.83023,96,2894504,India,IN,356,34,Southern Asia,AS,Asia,
2198148,Suva,Suva,-18.14161,178.44149,,77366,Fiji,FJ,242,54,Melanesia,OC,Oceania,
1835553,Suwon-si,Suwon-si,37.29111,127.00889,487,1242724,South Korea,KR,410,30,Eastern Asia,AS,Asia,
1886760,Suzhou,Suzhou,31.30408,120.59538,223,1343091,China,CN,156,30,Eastern Asia,AS,Asia,
1886760,Suzhou,Suzhou,31.30408,120.59538,290,1343091,China,CN,156,30,Eastern Asia,AS,Asia,
2147714,Sydney,Sydney,-33.86785,151.20732,,4627345,Australia,AU,36,53,Australia and New Zealand,OC,Oceania,
113646,Tabriz,Tabrīz,38.08,46.2919,279,1424641,Iran,IR,364,34,Southern Asia,AS,Asia,
2110093,Taburao Village,Taburao Village,1.85372,172.99744,,221,Kiribati,KI,296,57,Micronesia,OC,Oceania,
5881192,Tāfuna,Tāfuna,-14.33583,-170.72,,11017,American Samoa,AS,16,61,Polynesia,OC,Oceania,
1793724,Tai’an,Tai’an,36.18528,117.12,234,5499000,China,CN,156,30,Eastern Asia,AS,Asia,
1668399,Taichung,Taichung,24.1469,120.6839,117,1040725,Taiwan,TW,,,,,,
1548565,Tainan,Tainan,32.76205,120.26944,,0,China,CN,156,30,Eastern Asia,AS,Asia,
1668341,Taipei,Taipei,25.04776,121.53185,,7871900,Taiwan,TW,,,,,,
1793700,Taishan,Taishan,22.25135,112.7799,484,145440,China,CN,156,30,Eastern Asia,AS,Asia,
1793533,Taixing,Taixing,32.16667,120.01361,326,79655,China,CN,156,30,Eastern Asia,AS,Asia,
1793511,Taiyuan,Taiyuan,37.86944,112.56028,179,2722475,China,CN,156,30,Eastern Asia,AS,Asia,
1793505,Taizhou,Taizhou,32.49069,119.90812,242,612356,China,CN,156,30,Eastern Asia,AS,Asia,
588409,Tallinn,Tallinn,59.43696,24.75353,,394024,Estonia,EE,233,154,Northern Europe,EU,Europe,
4174757,Tampa,Tampa,27.94752,-82.45843,145,335709,United States,US,840,21,North America,NA,North America,
4038659,Tamuning-Tumon-Harmon Village,Tamuning-Tumon-Harmon Village,13.48773,144.78138,,19685,Guam,GU,316,57,Micronesia,OC,Oceania,
1625084,Tangerang,Tangerang,-6.17806,106.63,251,1372124,Indonesia,ID,360,35,South-Eastern Asia,AS,Asia,
1793346,Tangshan,Tangshan,39.63333,118.18333,208,1596949,China,CN,156,30,Eastern Asia,AS,Asia,
2110257,Tarawa,Tarawa,1.3278,172.97696,,40311,Kiribati,KI,296,57,Micronesia,OC,Oceania,
588335,Tartu,Tartu,58.38062,26.72509,,101092,Estonia,EE,233,154,Northern Europe,EU,Europe,
1512569,Tashkent,Tashkent,41.26465,69.21627,,1978028,Uzbekistan,UZ,860,143,Central Asia,AS,Asia,
611717,Tbilisi,Tbilisi,41.69411,44.83368,,1049498,Georgia,GE,268,145,Western Asia,AS,Asia,
3600949,Tegucigalpa,Tegucigalpa,14.0818,-87.20681,,850848,Honduras,HN,340,13,Central America,SA,South America,
112931,Tehran,Tehrān,35.69439,51.42151,,7153309,Iran,IR,364,34,Southern Asia,AS,Asia,
293397,Tel Aviv,Tel Aviv,32.08088,34.78057,,250000,Israel,IL,376,145,Western Asia,AS,Asia,
1793036,Tengzhou,Tengzhou,35.07706,117.15176,231,105456,China,CN,156,30,Eastern Asia,AS,Asia,
1254661,Thāne,Thāne,19.19704,72.96356,320,1261517,India,IN,356,34,Southern Asia,AS,Asia,
2747373,The Hague,The Hague,52.07667,4.29861,827,474292,Netherlands,NL,528,155,Western Europe,EU,Europe,
3573374,The Valley,The Valley,18.21704,-63.05783,,2035,Anguilla,AI,660,29,Caribbean,SA,South America,
734077,Thessaloniki,Thessaloníki,40.64028,22.94389,,354290,Greece,GR,300,39,Southern Europe,EU,Europe,
2244799,Thiès Nones,Thiès Nones,14.78333,-16.96667,,252320,Senegal,SN,686,11,Western Africa,AF,Africa,
1252416,Thimphu,Thimphu,27.46609,89.64191,,98676,Bhutan,BT,64,34,Southern Asia,AS,Asia,
1792947,Tianjin,Tianjin,39.14222,117.17667,37,3766207,China,CN,156,30,Eastern Asia,AS,Asia,
1805618,Jingling,Jingling,30.65,113.1,221,224871,China,CN,156,30,Eastern Asia,AS,Asia,
1792892,Tianshui,Tianshui,34.57952,105.74238,382,3500000,China,CN,156,30,Eastern Asia,AS,Asia,
618577,Tighina,Bender,46.83056,29.47111,,110175,Moldova,MD,498,151,Eastern Europe,EU,Europe,
3981609,Tijuana,Tijuana,32.5027,-117.00371,301,1376457,Mexico,MX,484,13,Central America,SA,South America,
3183875,Tirana,Tirana,41.3275,19.81889,,374801,Albania,AL,8,39,Southern Europe,EU,Europe,
617239,Tiraspol,Tiraspol,46.84028,29.64333,,157000,Moldova,MD,498,151,Eastern Europe,EU,Europe,
1053384,Toamasina,Toamasina,-18.1492,49.40234,,206373,Madagascar,MG,450,14,Eastern Africa,AF,Africa,
1850147,Tokyo,Tokyo,35.6895,139.69171,,8336599,Japan,JP,392,30,Eastern Asia,AS,Asia,
3515302,Toluca,Toluca,19.28786,-99.65324,415,505881,Mexico,MX,484,13,Central America,SA,South America,
482283,Tolyatti,Tol’yatti,53.5303,49.3461,701,702879,Russia,RU,643,151,Eastern Europe,EU,Europe,
1792520,Tongzhou,Tongzhou,39.90395,116.66183,278,163326,China,CN,156,30,Eastern Asia,AS,Asia,
3165524,Turin,Turin,45.07049,7.68682,518,870456,Italy,IT,380,39,Southern Europe,EU,Europe,
6167865,Toronto,Toronto,43.70011,-79.4163,,4612191,Canada,CA,124,21,North America,NA,North America,
2611396,Tórshavn,Tórshavn,62.00973,-6.77164,,13200,Faroe Islands,FO,234,154,Northern Europe,EU,Europe,
2410737,Trindade,Trindade,0.3,6.68333,,0,São Tomé and Príncipe,ST,678,17,Middle Africa,AF,Africa,
266826,Tripoli,Tripoli,34.43667,35.84972,,229398,Lebanon,LB,422,145,Western Asia,AS,Asia,
611403,Ts'khinvali,Ts’khinvali,42.22764,43.96861,,30000,Georgia,GE,268,145,Western Asia,AS,Asia,
2464470,Tunis,Tunis,36.81897,10.16579,,693210,Tunisia,TN,788,15,Northern Africa,AF,Africa,
1219649,Turkmenabat,Türkmenabat,39.07328,63.57862,,234817,Turkmenistan,TM,795,143,Central Asia,AS,Asia,
2641267,North Shields,North Shields,55.01646,-1.44925,538,39747,United Kingdom,GB,826,154,Northern Europe,EU,Europe,
1488754,Tyumen,Tyumen,57.15222,65.52722,895,519119,Russia,RU,643,151,Eastern Europe,EU,Europe,
479561,Ufa,Ufa,54.74306,55.96779,436,1033338,Russia,RU,643,151,Eastern Europe,EU,Europe,
2028462,Ulan Bator,Ulaanbaatar,47.90771,106.88324,471,844818,Mongolia,MN,496,30,Eastern Asia,AS,Asia,
2028462,Ulan Bator,Ulaanbaatar,47.90771,106.88324,,844818,Mongolia,MN,496,30,Eastern Asia,AS,Asia,
1833747,Ulsan,Ulsan,35.53722,129.31667,413,962865,South Korea,KR,410,30,Eastern Asia,AS,Asia,
479123,Ulyanovsk,Ulyanovsk,54.32824,48.38657,807,640680,Russia,RU,643,151,Eastern Europe,EU,Europe,
1529102,Ürümqi,Ürümqi,43.80096,87.60046,205,1508225,China,CN,156,30,Eastern Asia,AS,Asia,
1253573,Vadodara,Vadodara,22.2994,73.20812,241,1409476,India,IN,356,34,Southern Asia,AS,Asia,
3042030,Vaduz,Vaduz,47.14151,9.52154,,5197,Liechtenstein,LI,438,155,Western Europe,EU,Europe,
7601977,Vaiaku Village,Vaiaku Village,-8.52544,179.1941,,516,Tuvalu,TV,798,61,Polynesia,OC,Oceania,
4034908,Vaitele,Vaitele,-13.82933,-171.80604,,0,Samoa,WS,882,61,Polynesia,OC,Oceania,
611230,Vale,Vale,41.61558,42.87224,,4733,Georgia,GE,268,145,Western Asia,AS,Asia,
3625549,Valencia,Valencia,10.16202,-68.00765,319,1385083,Venezuela,VE,862,5,South America,SA,South America,
2562305,Valletta,Valletta,35.89972,14.51472,,6794,Malta,MT,470,39,Southern Europe,EU,Europe,
3868626,Valparaíso,Valparaíso,-33.03932,-71.62725,,282448,Chile,CL,152,5,South America,SA,South America,
6173331,Vancouver,Vancouver,49.24966,-123.11934,165,1837969,Canada,CA,124,21,North America,NA,North America,
1253405,Varanasi,Vārānasi,25.31668,83.01042,338,1164404,India,IN,356,34,Southern Asia,AS,Asia,
6691831,Vatican,Vatican City,41.90236,12.45332,,829,Vatican City,VA,336,39,Southern Europe,EU,Europe,
241131,Victoria,Victoria,-4.61667,55.45,,22881,Seychelles,SC,690,14,Eastern Africa,AF,Africa,
2761369,Vienna,Vienna,48.20849,16.37208,,1691468,Austria,AT,40,155,Western Europe,EU,Europe,
1651944,Vientiane,Vientiane,17.96667,102.6,,196731,Laos,LA,418,35,South-Eastern Asia,AS,Asia,
1253184,Vijayawada,Vijayawāda,16.51928,80.63049,449,874587,India,IN,356,34,Southern Asia,AS,Asia,
593116,Vilnius,Vilnius,54.68916,25.2798,,542366,Lithuania,LT,440,154,Northern Europe,EU,Europe,
1253102,Vizag,Vishākhapatnam,17.69004,83.20925,295,1063178,India,IN,356,34,Southern Asia,AS,Asia,
2013348,Vladivostok,Vladivostok,43.10562,131.87353,849,587022,Russia,RU,643,151,Eastern Europe,EU,Europe,
472757,Volgograd,Volgograd,48.71939,44.50184,438,1011417,Russia,RU,643,151,Eastern Europe,EU,Europe,
472045,Voronezh,Voronezh,51.67204,39.1843,496,848752,Russia,RU,643,151,Eastern Europe,EU,Europe,
1792260,Wafangdian,Wafangdian,39.61833,122.00806,480,250591,China,CN,156,30,Eastern Asia,AS,Asia,
756135,Warsaw,Warsaw,52.22977,21.01178,,1702139,Poland,PL,616,151,Eastern Europe,EU,Europe,
4140963,Washington,"Washington, D. C.",38.89511,-77.03637,,601723,United States,US,840,21,North America,NA,North America,
2137690,Wé,Wé,-20.91687,167.26461,,10375,New Caledonia,NC,540,54,Melanesia,OC,Oceania,
1791681,Weifang,Weifang,36.71,119.10194,275,394732,China,CN,156,30,Eastern Asia,AS,Asia,
2179537,Wellington,Wellington,-41.28664,174.77557,,381900,New Zealand,NZ,554,53,Australia and New Zealand,OC,Oceania,
1791464,Wenling,Wenling,28.37161,121.36974,370,67433,China,CN,156,30,Eastern Asia,AS,Asia,
2081114,Weno Town,Weno Town,7.45154,151.8468,,13856,Micronesia,FM,583,57,Micronesia,OC,Oceania,
1791388,Wenzhou,Wenzhou,27.99942,120.66682,194,865672,China,CN,156,30,Eastern Asia,AS,Asia,
3580477,West Bay,West Bay,19.36667,-81.41667,,11269,Cayman Islands,KY,136,29,Caribbean,SA,South America,
7304591,West Island,West Island,-12.15681,96.82251,,120,Cocos [Keeling] Islands,CC,,,,,,
2647594,Halton West,Halton West,53.98505,-2.23984,240,0,United Kingdom,GB,826,154,Northern Europe,EU,Europe,
3513090,Willemstad,Willemstad,12.1084,-68.93354,,125000,Curacao,CW,531,29,Caribbean,SA,South America,
3352136,Windhoek,Windhoek,-22.55941,17.08323,,268132,Namibia,NA,516,18,Southern Africa,AF,Africa,
1791247,Wuhan,Wuhan,30.58333,114.26667,51,4184206,China,CN,156,30,Eastern Asia,AS,Asia,
1815456,Changzhou,Changzhou,31.77358,119.95401,263,949018,China,CN,156,30,Eastern Asia,AS,Asia,
1803936,Wuwei,Wuwei,37.92672,102.63202,488,493092,China,CN,156,30,Eastern Asia,AS,Asia,
1790923,Wuxi,Wuxi,31.56887,120.28857,261,1108647,China,CN,156,30,Eastern Asia,AS,Asia,
1790919,Wuxian,Wuxian,31.5,118.23333,389,0,China,CN,156,30,Eastern Asia,AS,Asia,
1790630,Xi'an,Xi’an,34.25833,108.92861,93,3225812,China,CN,156,30,Eastern Asia,AS,Asia,
1790645,Xiamen,Xiamen,24.47979,118.08187,189,578337,China,CN,156,30,Eastern Asia,AS,Asia,
1790601,Xiangcheng,Xiangcheng,33.84703,113.4778,427,65833,China,CN,156,30,Eastern Asia,AS,Asia,
1790371,Xiantao,Xiantao,30.3708,113.44294,250,239406,China,CN,156,30,Eastern Asia,AS,Asia,
1790353,Xianyang,Xianyang,34.33778,108.70261,481,1034081,China,CN,156,30,Eastern Asia,AS,Asia,
1789998,Xiaoshan,Xiaoshan,30.16746,120.25883,329,95234,China,CN,156,30,Eastern Asia,AS,Asia,
1784820,Xinghua,Xinghua,32.93917,119.83417,256,105918,China,CN,156,30,Eastern Asia,AS,Asia,
1806882,Xinhui,Xinhui,22.456,113.0482,492,195129,China,CN,156,30,Eastern Asia,AS,Asia,
1800433,Xinmi,Xinmi,34.51306,113.36222,,0,China,CN,156,30,Eastern Asia,AS,Asia,
1788618,Xintai,Xintai,35.90056,117.75194,291,222459,China,CN,156,30,Eastern Asia,AS,Asia,
1788572,Xinxiang,Xinxiang,35.30889,113.86722,,743601,China,CN,156,30,Eastern Asia,AS,Asia,
1788534,Xinyang,Xinyang,32.12278,114.06556,322,1590668,China,CN,156,30,Eastern Asia,AS,Asia,
1812057,Xinyi,Xinyi,22.37303,110.94746,477,98259,China,CN,156,30,Eastern Asia,AS,Asia,
1788508,Xinyu,Xinyu,27.80429,114.93335,,97480,China,CN,156,30,Eastern Asia,AS,Asia,
1803616,Xishan,Xishan,27.66667,113.5,355,98162,China,CN,156,30,Eastern Asia,AS,Asia,
1788060,Xuanwei,Xuanwei,26.36667,107.73333,307,0,China,CN,156,30,Eastern Asia,AS,Asia,
1787824,Xuzhou,Tongshan,34.18045,117.15707,214,1199193,China,CN,156,30,Eastern Asia,AS,Asia,
2279755,Yamoussoukro,Yamoussoukro,6.82055,-5.27674,,194530,Ivory Coast,CI,384,11,Western Africa,AF,Africa,
1298824,Yangon,Rangoon,16.80528,96.15611,,4477638,Myanmar [Burma],MM,104,35,South-Eastern Asia,AS,Asia,
1787093,Yantai,Yantai,37.47649,121.44081,206,719332,China,CN,156,30,Eastern Asia,AS,Asia,
2220957,Yaoundé,Yaoundé,3.86667,11.51667,306,1299369,Cameroon,CM,120,17,Middle Africa,AF,Africa,
7626461,Yaren,Yaren,-0.55085,166.9252,,1100,Nauru,NR,520,57,Micronesia,OC,Oceania,
363619,Yei,Yei,4.09504,30.67792,,40382,South Sudan,SS,728,14,Eastern Africa,AF,Africa,
616052,Yerevan,Yerevan,40.18111,44.51361,,1093485,Armenia,AM,51,145,Western Asia,AS,Asia,
1786746,Yichun,Yichun,27.83333,114.4,500,152169,China,CN,156,30,Eastern Asia,AS,Asia,
1885690,Yixing,Yixing,32.01548,121.44028,368,0,China,CN,156,30,Eastern Asia,AS,Asia,
1808316,Yiyang,Yiyang,28.58917,112.32833,330,202608,China,CN,156,30,Eastern Asia,AS,Asia,
1848354,Yokohama,Yokohama-shi,35.44778,139.6425,173,3574443,Japan,JP,392,30,Eastern Asia,AS,Asia,
1786373,Yongcheng,Yongcheng,33.93611,116.36417,318,0,China,CN,156,30,Eastern Asia,AS,Asia,
1786378,Yongchuan,Yongchuan,29.35376,105.89392,467,94465,China,CN,156,30,Eastern Asia,AS,Asia,
1786217,Yongzhou,Yongzhou,26.42389,111.61306,473,0,China,CN,156,30,Eastern Asia,AS,Asia,
2033242,Yushu,Yushu,44.8,126.53333,373,124736,China,CN,156,30,Eastern Asia,AS,Asia,
1785566,Yuzhou,Yuzhou,34.16278,113.46389,391,87961,China,CN,156,30,Eastern Asia,AS,Asia,
3186886,Zagreb,Zagreb,45.81444,15.97798,,698966,Croatia,HR,191,39,Southern Europe,EU,Europe,
1785462,Zaoyang,Zaoyang,32.12722,112.75417,423,184509,China,CN,156,30,Eastern Asia,AS,Asia,
1785453,Zaozhuang,Zaozhuang,34.86472,117.55417,191,183665,China,CN,156,30,Eastern Asia,AS,Asia,
687700,Zaporizhia,Zaporizhzhya,47.82289,35.19031,613,796217,Ukraine,UA,804,151,Eastern Europe,EU,Europe,
3104324,Saragossa,Zaragoza,41.65606,-0.87734,788,674317,Spain,ES,724,39,Southern Europe,EU,Europe,
250090,Zarqa,Zarqa,32.07275,36.08796,,792665,Jordan,JO,400,145,Western Asia,AS,Asia,
1787331,Zhangjiagang,Zhangjiagang,31.865,120.53889,479,66039,China,CN,156,30,Eastern Asia,AS,Asia,
7528391,Zhangqiu,Zhangqiu,32.19571,119.97217,472,0,China,CN,156,30,Eastern Asia,AS,Asia,
1784990,Zhanjiang,Zhanjiang,21.28145,110.34271,287,637790,China,CN,156,30,Eastern Asia,AS,Asia,
1784841,Zhaotong,Zhaotong,27.31667,103.71667,,109400,China,CN,156,30,Eastern Asia,AS,Asia,
1784658,Zhengzhou,Zhengzhou,34.75778,113.64861,178,2014125,China,CN,156,30,Eastern Asia,AS,Asia,
1915223,Zhongshan,Zhongshan,21.31992,110.5723,182,2493400,China,CN,156,30,Eastern Asia,AS,Asia,
1786546,Zhongxiang,Zhongxiang,31.16611,112.58306,441,108883,China,CN,156,30,Eastern Asia,AS,Asia,
1783988,Zhucheng,Zhucheng,35.99472,119.3975,424,109968,China,CN,156,30,Eastern Asia,AS,Asia,
1783940,Zhuji,Zhuji,29.71876,120.24233,414,110721,China,CN,156,30,Eastern Asia,AS,Asia,
1785286,Zibo,Zibo,36.79056,118.06333,176,669770,China,CN,156,30,Eastern Asia,AS,Asia,
1783745,Zigong,Zigong,29.34162,104.77689,428,689961,China,CN,156,30,Eastern Asia,AS,Asia,
2437798,Zinder,Zinder,13.80716,8.9881,,191424,Niger,NE,562,11,Western Africa,AF,Africa,
1783683,Yanjiang,Yanjiang,30.12108,104.64811,445,87400,China,CN,156,30,Eastern Asia,AS,Asia,
1783633,Zoucheng,Zoucheng,35.40056,116.96556,404,190537,China,CN,156,30,Eastern Asia,AS,Asia,
2657896,Zurich,Zürich,47.36667,8.55,,341730,Switzerland,CH,756,155,Western Europe,EU,Europe,